ID,Water company,Site name,Longitude,Latitude,Receiving Environment,River Basin District,Management Catchment,Local Authority,Water Body,Bathing Water Discharge Flag,Shellfish Water Discharge Flag,Ecological High Priority Site Flag,Marine Protected Area Discharge Flag,Non-bathing Priority Site Flag,Spill Events 2020,Spill Events 2021,Spill Events 2022,Sewage Reduction Plan Targets Met Flag,Spill Improvement Date Planned,Rainfall Improvement Target Delivery Flag,Improvements List,Predicted Annual Spill Frequence Post Scheme,Baseline,Baseline Less Than Target,Requires No Improvement,Meets 2025 Requirements,Meets 2030 Requirements,Meets 2035 Requirements,Meets 2040 Requirements,Meets 2045 Requirements,Meets 2050 Requirements,2025 Projected Spills,2030 Projected Spills,2035 Projected Spills,2040 Projected Spills,2045 Projected Spills,2050 Projected Spills
AnW0021,Anglian Water,ASHTON WATER RECYCLING CENTRE,-0.8795394,52.13237,Inland,Anglian,Upper and Bedford Ouse,West Northamptonshire,Tove (DS Greens Norton),N,N,N,N,,0.0,0.0,0.0,Y,2023.0,,Improvements to be confirmed,10.0,0.0,Y,Y,1.0,1.0,1.0,1.0,1.0,1.0,10.0,10.0,10.0,10.0,10.0,10.0
AnW0022,Anglian Water,ASHWELL WATER RECYCLING CENTRE,-0.17139824,52.05293,Inland,Anglian,Cam and Ely Ouse,North Hertfordshire,Rhee (US Wendy),N,N,N,N,,2.0,2.0,24.0,Y,2023.0,,Improvements to be confirmed,10.0,2.0,Y,Y,1.0,1.0,1.0,1.0,1.0,1.0,10.0,10.0,10.0,10.0,10.0,10.0
AnW0025,Anglian Water,ATTLEBOROUGH WRC,0.98932165,52.51565,Inland,Anglian,Cam and Ely Ouse,Breckland,Thet (US Swangey Fen),N,N,N,N,,6.0,1.0,2.0,Y,2023.0,,Storage. Other improvements to be confirmed,10.0,6.0,Y,Y,1.0,1.0,1.0,1.0,1.0,1.0,10.0,10.0,10.0,10.0,10.0,10.0
AnW0026,Anglian Water,ATTLEBOROUGH NORWICH ROAD PS,1.0309237,52.52427,Inland,Anglian,Cam and Ely Ouse,Breckland,Thet (US Swangey Fen),N,N,N,N,,3.0,1.0,3.0,Y,2023.0,,Operational (e.g. blockages). Other improvements to be confirmed,10.0,3.0,Y,Y,1.0,1.0,1.0,1.0,1.0,1.0,10.0,10.0,10.0,10.0,10.0,10.0
AnW0044,Anglian Water,BARNETBY - FERNERY LA TERMINAL PS,-0.40833515,53.574852,Inland,Humber,Louth Grimsby and Ancholme,North Lincolnshire,Kettleby Beck,N,N,N,N,,1.0,27.0,11.0,N,2040.0,,Operational (e.g. blockages). Other improvements to be confirmed,10.0,1.0,Y,Y,1.0,1.0,1.0,1.0,1.0,1.0,1.0,1.0,1.0,10.0,10.0,10.0
AnW0048,Anglian Water,BARRINGTON SLID LANE 2 CSO,0.039385233,52.12707,Inland,Anglian,Cam and Ely Ouse,South Cambridgeshire,Rhee (DS Wendy),N,N,N,N,,4.0,12.0,59.0,N,2040.0,,Operational (e.g. blockages). Other improvements to be confirmed,10.0,4.0,Y,Y,1.0,1.0,1.0,1.0,1.0,1.0,4.0,4.0,4.0,10.0,10.0,10.0
AnW0059,Anglian Water,BECCLES - CAXTON SPORTS GROUND CSO,1.570576,52.46067,Inland,Anglian,Broadland Rivers,East Suffolk,Waveney (Ellingham Mill - Burgh St. Peter),N,N,N,N,,1.0,5.0,8.0,Y,2023.0,,Improvements to be confirmed,10.0,1.0,Y,Y,1.0,1.0,1.0,1.0,1.0,1.0,10.0,10.0,10.0,10.0,10.0,10.0
AnW0060,Anglian Water,BECCLES - COMMON LANE TERMINAL PS,1.5664306,52.464035,Inland,Anglian,Broadland Rivers,East Suffolk,Waveney (Ellingham Mill - Burgh St. Peter),N,N,N,N,,21.0,18.0,22.0,N,2030.0,Y,"Spill treatment, New screen, Operational (e.g. blockages), Nature-Based (e.g SuDS or Wetland Treatment). Other improvements to be confirmed",10.0,21.0,,,0.0,1.0,1.0,1.0,1.0,1.0,21.0,10.0,10.0,10.0,10.0,10.0
AnW0064,Anglian Water,BEDFIELD CROWN LANE PUMPING STATION,1.2565455,52.251545,Inland,Anglian,Broadland Rivers,Mid Suffolk,Chickering Beck,N,N,N,N,,0.0,14.0,17.0,Y,2023.0,,Improvements to be confirmed,10.0,0.0,Y,Y,1.0,1.0,1.0,1.0,1.0,1.0,10.0,10.0,10.0,10.0,10.0,10.0
AnW0074,Anglian Water,BENFLEET WATER RECYCLING CENTRE,0.55128545,51.546036,Estuarine,Anglian,Combined Essex,Castle Point,Not part of a river WB catchment,N,Y,Y,N,Y,34.0,35.0,18.0,N,2040.0,,Improvements to be confirmed,10.0,34.0,,,0.0,0.0,0.0,1.0,1.0,1.0,34.0,34.0,34.0,10.0,10.0,10.0
AnW0075,Anglian Water,BENHALL WATER RECYCLING CENTRE,1.4838471,52.191807,Inland,Anglian,East Suffolk,East Suffolk,Fromus,N,N,N,N,,4.0,13.0,6.0,Y,2023.0,,Storage. Other improvements to be confirmed,10.0,4.0,Y,Y,1.0,1.0,1.0,1.0,1.0,1.0,10.0,10.0,10.0,10.0,10.0,10.0
AnW0086,Anglian Water,CHAPEL TPS,0.35302207,52.497017,Inland,Anglian,Cam and Ely Ouse,East Cambridgeshire,Ely Ouse (South Level),N,N,N,N,,0.0,0.0,0.0,Y,2023.0,,Improvements to be confirmed,10.0,0.0,Y,Y,1.0,1.0,1.0,1.0,1.0,1.0,10.0,10.0,10.0,10.0,10.0,10.0
AnW0088,Anglian Water,BLAKESLEY TPS MANHOLE 135,-1.0894083,52.14317,Inland,Anglian,Upper and Bedford Ouse,West Northamptonshire,Blakesley Brook,N,N,N,N,,0.0,1.0,1.0,Y,2023.0,,Improvements to be confirmed,10.0,0.0,Y,Y,1.0,1.0,1.0,1.0,1.0,1.0,10.0,10.0,10.0,10.0,10.0,10.0
AnW0093,Anglian Water,BRADFORD BRIDGE PS,0.5605681,51.89028,Inland,Anglian,Combined Essex,Braintree,Blackwater (Combined Essex),N,N,N,N,,0.0,0.0,0.0,Y,2023.0,,Improvements to be confirmed,10.0,0.0,Y,Y,1.0,1.0,1.0,1.0,1.0,1.0,10.0,10.0,10.0,10.0,10.0,10.0
AnW0097,Anglian Water,BOSTON NORFOLK PLACE CSO,-0.029221125,52.981426,Inland,Anglian,Witham,Boston,Not part of a river WB catchment,N,N,N,N,,10.0,109.0,20.0,N,2035.0,,Improvements to be confirmed,10.0,10.0,Y,Y,1.0,1.0,1.0,1.0,1.0,1.0,10.0,10.0,10.0,10.0,10.0,10.0
AnW0098,Anglian Water,BOSTON CHURCH ROAD PS,-0.014284507,52.97255,Inland,Anglian,Witham,Boston,Maud Foster and Fen Catchwater Drains,N,N,N,N,,4.0,3.0,8.0,Y,2023.0,,Improvements to be confirmed,10.0,4.0,Y,Y,1.0,1.0,1.0,1.0,1.0,1.0,10.0,10.0,10.0,10.0,10.0,10.0
AnW0099,Anglian Water,BOSTON NEW EAST SIDE TERMINAL PS,-0.006293682,52.96495,Estuarine,Anglian,Witham,Boston,Not part of a river WB catchment,N,N,N,N,,39.0,40.0,34.0,N,2040.0,Y,Operational (e.g. blockages). Other improvements to be confirmed,10.0,39.0,,,0.0,0.0,0.0,1.0,1.0,1.0,39.0,39.0,39.0,10.0,10.0,10.0
AnW0100,Anglian Water,FENSIDE ROAD PUMPING STATION,-0.043502957,52.981842,Inland,Anglian,Witham,Boston,Black Sluice IDB draining to the South Forty Foot Drain,N,N,N,N,,3.0,1.0,1.0,Y,2023.0,,Operational (e.g. blockages). Other improvements to be confirmed,10.0,3.0,Y,Y,1.0,1.0,1.0,1.0,1.0,1.0,10.0,10.0,10.0,10.0,10.0,10.0
AnW0102,Anglian Water,BOSTON LONDON ROAD PUMPING STATION,-0.027928028,52.96729,Inland,Anglian,Witham,Boston,Black Sluice IDB draining to the South Forty Foot Drain,N,N,N,N,,0.0,0.0,0.0,Y,2023.0,,Improvements to be confirmed,10.0,0.0,Y,Y,1.0,1.0,1.0,1.0,1.0,1.0,10.0,10.0,10.0,10.0,10.0,10.0
AnW0104,Anglian Water,BOSTON QUEENS ROAD CSO,-0.01703578,52.980774,Inland,Anglian,Witham,Boston,Maud Foster and Fen Catchwater Drains,N,N,N,N,,1.0,2.0,4.0,Y,2023.0,,Improvements to be confirmed,10.0,1.0,Y,Y,1.0,1.0,1.0,1.0,1.0,1.0,10.0,10.0,10.0,10.0,10.0,10.0
AnW0106,Anglian Water,BOTTISHAM WATER RECYCLING CENTRE,0.2603368,52.228973,Inland,Anglian,Cam and Ely Ouse,East Cambridgeshire,Swaffham - Bulbeck Lode,N,N,N,N,,5.0,13.0,1.0,Y,2023.0,,Storage. Other improvements to be confirmed,10.0,5.0,Y,Y,1.0,1.0,1.0,1.0,1.0,1.0,10.0,10.0,10.0,10.0,10.0,10.0
AnW0114,Anglian Water,BOZEAT STW,-0.6808107,52.223923,Inland,Anglian,Nene,North Northamptonshire,Grendon Brook,N,N,N,N,,0.0,0.0,52.0,N,2040.0,,Improvements to be confirmed,10.0,0.0,Y,Y,1.0,1.0,1.0,1.0,1.0,1.0,0.0,0.0,0.0,10.0,10.0,10.0
AnW0117,Anglian Water,BRACKLEY-NEW WATER RECYCLING CENTRE,-1.1266353,52.017845,Inland,Anglian,Upper and Bedford Ouse,Buckinghamshire,Ouse (Brackley to Buckingham),N,N,Y,N,Y,16.0,26.0,23.0,N,2030.0,Y,Storage. Other improvements to be confirmed,10.0,16.0,,,0.0,1.0,1.0,1.0,1.0,1.0,16.0,10.0,10.0,10.0,10.0,10.0
AnW0118,Anglian Water,BRACKLEY BRIDGE STREET CSO,-1.1498525,52.02305,Inland,Anglian,Upper and Bedford Ouse,West Northamptonshire,Hinton Stream,N,N,N,N,,0.0,5.0,7.0,Y,2023.0,,Improvements to be confirmed,10.0,0.0,Y,Y,1.0,1.0,1.0,1.0,1.0,1.0,10.0,10.0,10.0,10.0,10.0,10.0
AnW0138,Anglian Water,BRANDON WRC,0.6111544,52.449783,Inland,Anglian,Cam and Ely Ouse,West Suffolk,Little Ouse River,N,N,N,N,,1.0,0.0,2.0,Y,2023.0,,Storage. Other improvements to be confirmed,10.0,1.0,Y,Y,1.0,1.0,1.0,1.0,1.0,1.0,10.0,10.0,10.0,10.0,10.0,10.0
AnW0148,Anglian Water,BRIGG GAS HOUSE LANE TPS,-0.49579778,53.55315,Inland,Humber,Louth Grimsby and Ancholme,North Lincolnshire,Ancholme from Bishopbridge to the Humber,N,N,N,N,,6.0,5.0,1.0,Y,2023.0,,Operational (e.g. blockages). Other improvements to be confirmed,10.0,6.0,Y,Y,1.0,1.0,1.0,1.0,1.0,1.0,10.0,10.0,10.0,10.0,10.0,10.0
AnW0149,Anglian Water,BRIGG - SUNNINGDALE AVE TERMINAL PS,-0.48978582,53.560898,Inland,Humber,Louth Grimsby and Ancholme,North Lincolnshire,Ancholme from Bishopbridge to the Humber,N,N,N,N,,0.0,6.0,2.0,Y,2023.0,,Improvements to be confirmed,10.0,0.0,Y,Y,1.0,1.0,1.0,1.0,1.0,1.0,10.0,10.0,10.0,10.0,10.0,10.0
AnW0150,Anglian Water,BRIGHTLINGSEA STATION ROAD CSO,1.0176293,51.809677,Inland,Anglian,Combined Essex,Tendring,Not part of a river WB catchment,Y,Y,Y,Y,Y,12.0,14.0,19.0,N,2035.0,Y,"Storage, Operational (e.g. blockages). Other improvements to be confirmed",10.0,12.0,,,0.0,0.0,1.0,1.0,1.0,1.0,12.0,12.0,10.0,10.0,10.0,10.0
AnW0151,Anglian Water,BRIGHTLINGSEA STATION ROAD CSO,1.0177212,51.8096,Inland,Anglian,Combined Essex,Tendring,Not part of a river WB catchment,Y,Y,Y,N,Y,4.0,12.0,1.0,N,2023.0,Y,Operational (e.g. blockages). Other improvements to be confirmed,10.0,4.0,Y,Y,1.0,1.0,1.0,1.0,1.0,1.0,10.0,10.0,10.0,10.0,10.0,10.0
AnW0152,Anglian Water,BRIGHTLINGSEA CSO (BELLFIELD 35),1.0176613,51.809723,Inland,Anglian,Combined Essex,Tendring,Not part of a river WB catchment,Y,Y,Y,Y,Y,24.0,8.0,6.0,N,2035.0,Y,Operational (e.g. blockages). Other improvements to be confirmed,10.0,24.0,,,0.0,0.0,1.0,1.0,1.0,1.0,24.0,24.0,10.0,10.0,10.0,10.0
AnW0154,Anglian Water,BRIGHTLINGSEA WEST DYKE TERMINAL PS,1.0176194,51.809532,Inland,Anglian,Combined Essex,Tendring,Not part of a river WB catchment,Y,Y,Y,Y,Y,43.0,10.0,5.0,N,2035.0,Y,"Storage, Spill treatment, New screen, Operational (e.g. blockages). Other improvements to be confirmed",10.0,43.0,,,0.0,0.0,1.0,1.0,1.0,1.0,43.0,43.0,10.0,10.0,10.0,10.0
AnW0156,Anglian Water,BRIGHTLINGSEA - SPRING ROAD CSO,1.0177529,51.809658,Inland,Anglian,Combined Essex,Tendring,Not part of a river WB catchment,Y,Y,Y,N,Y,1.0,3.0,28.0,N,2035.0,Y,"Storage, Spill treatment, New screen. Other improvements to be confirmed",10.0,1.0,Y,Y,1.0,1.0,1.0,1.0,1.0,1.0,1.0,1.0,10.0,10.0,10.0,10.0
AnW0166,Anglian Water,BROUGHTON-TOWNHILL  CSO,-0.543201,53.570637,Inland,Humber,Louth Grimsby and Ancholme,North Lincolnshire,Ancholme from Bishopbridge to the Humber,N,N,N,N,,0.0,0.0,0.0,Y,2023.0,,Operational (e.g. blockages). Other improvements to be confirmed,10.0,0.0,Y,Y,1.0,1.0,1.0,1.0,1.0,1.0,10.0,10.0,10.0,10.0,10.0,10.0
AnW0170,Anglian Water,BUCKINGHAM TOWN PS,-0.98349106,52.000423,Inland,Anglian,Upper and Bedford Ouse,Buckinghamshire,Ouse (Brackley to Buckingham),N,N,N,N,,2.0,0.0,0.0,Y,2023.0,,Operational (e.g. blockages). Other improvements to be confirmed,10.0,2.0,Y,Y,1.0,1.0,1.0,1.0,1.0,1.0,10.0,10.0,10.0,10.0,10.0,10.0
AnW0171,Anglian Water,BUCKINGHAM-WEST STREET CSO,-0.9903665,51.999134,Inland,Anglian,Upper and Bedford Ouse,Buckinghamshire,Ouse (Brackley to Buckingham),N,N,N,N,,0.0,0.0,0.0,Y,2023.0,,Operational (e.g. blockages). Other improvements to be confirmed,10.0,0.0,Y,Y,1.0,1.0,1.0,1.0,1.0,1.0,10.0,10.0,10.0,10.0,10.0,10.0
AnW0179,Anglian Water,BUNGAY - BOYSCOTT LANE PS,1.4379117,52.449406,Inland,Anglian,Broadland Rivers,East Suffolk,Waveney (Starston Brook - Ellingham Mill),N,N,N,N,,3.0,31.0,8.0,N,2040.0,,Operational (e.g. blockages). Other improvements to be confirmed,10.0,3.0,Y,Y,1.0,1.0,1.0,1.0,1.0,1.0,3.0,3.0,3.0,10.0,10.0,10.0
AnW0182,Anglian Water,BUNGAY ST JOHNS ROAD SSO,1.445095,52.450905,Inland,Anglian,Broadland Rivers,East Suffolk,Waveney (Starston Brook - Ellingham Mill),N,N,N,N,,3.0,3.0,2.0,Y,2023.0,,Improvements to be confirmed,10.0,3.0,Y,Y,1.0,1.0,1.0,1.0,1.0,1.0,10.0,10.0,10.0,10.0,10.0,10.0
AnW0185,Anglian Water,BURNHAM MARKET WATER RECYCLING CTR,0.74506384,52.947094,Inland,Anglian,North Norfolk Rivers,King's Lynn and West Norfolk,Burn,N,N,Y,N,Y,115.0,105.0,7.0,N,2030.0,Y,"Storage, Increased pass forward flow/flow to treatment, Spill treatment. Other improvements to be confirmed",10.0,115.0,,,0.0,1.0,1.0,1.0,1.0,1.0,115.0,10.0,10.0,10.0,10.0,10.0
AnW0186,Anglian Water,BURNHAM ON CROUCH WRC,0.8273391,51.622272,Estuarine,Anglian,"Transitional, CROUCH",Maldon,CROUCH,N,N,Y,Y,Y,81.0,67.0,37.0,N,2030.0,Y,"Storage, Spill treatment, New screen, Nature-Based (e.g SuDS or Wetland Treatment). Other improvements to be confirmed",10.0,81.0,,,0.0,1.0,1.0,1.0,1.0,1.0,81.0,10.0,10.0,10.0,10.0,10.0
AnW0198,Anglian Water,BURWELL STW STORM TANKS & EO,0.33141026,52.293564,Inland,Anglian,Cam and Ely Ouse,East Cambridgeshire,Burwell Lode,N,N,N,N,,2.0,0.0,2.0,Y,2023.0,,Improvements to be confirmed,10.0,2.0,Y,Y,1.0,1.0,1.0,1.0,1.0,1.0,10.0,10.0,10.0,10.0,10.0,10.0
AnW0200,Anglian Water,BUXTON - COLTISHALL ROAD TPS,1.3090495,52.754196,Inland,Anglian,Broadland Rivers,Broadland,Hevingham Watercourse,N,N,N,N,,8.0,7.0,0.0,Y,2023.0,,Improvements to be confirmed,10.0,8.0,Y,Y,1.0,1.0,1.0,1.0,1.0,1.0,10.0,10.0,10.0,10.0,10.0,10.0
AnW0201,Anglian Water,BYLAUGH WATER RECYCLING CENTRE,1.0151789,52.722824,Inland,Anglian,Broadland Rivers,Breckland,Wensum US Norwich,N,N,Y,N,Y,10.0,29.0,6.0,N,2030.0,Y,Storage. Other improvements to be confirmed,10.0,10.0,Y,Y,1.0,1.0,1.0,1.0,1.0,1.0,10.0,10.0,10.0,10.0,10.0,10.0
AnW0202,Anglian Water,CAISTER- HEADWORKS PS,1.7596406,52.626163,Coastal,Anglian,"Coastal, Norfolk East",Great Yarmouth,Norfolk East,N,N,Y,N,Y,61.0,127.0,71.0,N,2030.0,Y,Improvements to be confirmed,10.0,61.0,,,0.0,1.0,1.0,1.0,1.0,1.0,61.0,10.0,10.0,10.0,10.0,10.0
AnW0206,Anglian Water,CAMBRIDGE WATER RECYCLING CENTRE,0.17086583,52.232,Inland,Anglian,Cam and Ely Ouse,South Cambridgeshire,Cam,N,N,N,N,,0.0,0.0,0.0,Y,2023.0,,"Increased pass forward flow/flow to treatment, Spill treatment. Other improvements to be confirmed",10.0,0.0,Y,Y,1.0,1.0,1.0,1.0,1.0,1.0,10.0,10.0,10.0,10.0,10.0,10.0
AnW0207,Anglian Water,CAMBRIDGE RIVERSIDE 187 CSO,0.14178205,52.21194,Inland,Anglian,Cam and Ely Ouse,Cambridge,Cam,N,N,N,N,,4.0,13.0,2.0,Y,2023.0,,Improvements to be confirmed,10.0,4.0,Y,Y,1.0,1.0,1.0,1.0,1.0,1.0,10.0,10.0,10.0,10.0,10.0,10.0
AnW0210,Anglian Water,CANVEY - CHAMPLAIN AVENUE PS,0.57728255,51.526222,Estuarine,Thames,South Essex,Castle Point,Not part of a river WB catchment,N,N,N,N,,1.0,5.0,3.0,Y,2023.0,,Operational (e.g. blockages). Other improvements to be confirmed,10.0,1.0,Y,Y,1.0,1.0,1.0,1.0,1.0,1.0,10.0,10.0,10.0,10.0,10.0,10.0
AnW0212,Anglian Water,CANVEY ISLAND - FURTHERWICK ROAD PS,0.5845767,51.515,Estuarine,Thames,South Essex,Castle Point,Not part of a river WB catchment,N,Y,Y,N,Y,0.0,12.0,9.0,Y,2023.0,,Operational (e.g. blockages). Other improvements to be confirmed,10.0,0.0,Y,Y,1.0,1.0,1.0,1.0,1.0,1.0,10.0,10.0,10.0,10.0,10.0,10.0
AnW0213,Anglian Water,CANVEY - NEVADA RD/HIGH ST PS,0.5915649,51.523838,Estuarine,Thames,South Essex,Castle Point,Not part of a river WB catchment,N,Y,Y,N,Y,8.0,11.0,16.0,N,2035.0,,Operational (e.g. blockages). Other improvements to be confirmed,10.0,8.0,Y,Y,1.0,1.0,1.0,1.0,1.0,1.0,8.0,8.0,10.0,10.0,10.0,10.0
AnW0214,Anglian Water,CANVEY - NEW ROAD SP,0.56379485,51.524807,Estuarine,Thames,South Essex,Castle Point,Not part of a river WB catchment,N,N,N,N,,5.0,2.0,2.0,Y,2023.0,,Improvements to be confirmed,10.0,5.0,Y,Y,1.0,1.0,1.0,1.0,1.0,1.0,10.0,10.0,10.0,10.0,10.0,10.0
AnW0215,Anglian Water,POINT ROAD PUMPING STATION,0.6159656,51.51943,Estuarine,Thames,South Essex,Castle Point,Not part of a river WB catchment,N,Y,Y,N,Y,3.0,4.0,2.0,N,2023.0,Y,Improvements to be confirmed,10.0,3.0,Y,Y,1.0,1.0,1.0,1.0,1.0,1.0,10.0,10.0,10.0,10.0,10.0,10.0
AnW0217,Anglian Water,PARKINS COAL YARD CAPEL ST MARY PS,1.0581146,52.00602,Inland,Anglian,Combined Essex,Babergh,Stutton Brook,N,N,N,N,,0.0,5.0,0.0,Y,2023.0,,Improvements to be confirmed,10.0,0.0,Y,Y,1.0,1.0,1.0,1.0,1.0,1.0,10.0,10.0,10.0,10.0,10.0,10.0
AnW0219,Anglian Water,CASTLE HEDINGHAM - QUEEN ST CSO,0.5934558,51.986774,Inland,Anglian,Combined Essex,Braintree,Colne (Gt. Yeldham - Doe's Corner),N,N,N,N,,2.0,5.0,3.0,Y,2023.0,,Improvements to be confirmed,10.0,2.0,Y,Y,1.0,1.0,1.0,1.0,1.0,1.0,10.0,10.0,10.0,10.0,10.0,10.0
AnW0222,Anglian Water,HUNTINGDON RD STORM SEWAGE OVERFLOW,0.037545975,52.45126,Inland,Anglian,Old Bedford and Middle Level,Fenland,Middle Level,N,N,N,N,,0.0,19.0,20.0,N,2040.0,,Operational (e.g. blockages). Other improvements to be confirmed,10.0,0.0,Y,Y,1.0,1.0,1.0,1.0,1.0,1.0,0.0,0.0,0.0,10.0,10.0,10.0
AnW0225,Anglian Water,CHEDBURGH STW,0.6263996,52.19846,Inland,Anglian,Cam and Ely Ouse,West Suffolk,Linnet,N,N,N,N,,1.0,0.0,8.0,Y,2023.0,,Improvements to be confirmed,10.0,1.0,Y,Y,1.0,1.0,1.0,1.0,1.0,1.0,10.0,10.0,10.0,10.0,10.0,10.0
AnW0226,Anglian Water,CHELMSFORD WATER RECYCLING CENTRE,0.66559476,51.738647,Estuarine,Anglian,"Transitional, BLACKWATER",Maldon,BLACKWATER,N,N,N,Y,Y,15.0,14.0,6.0,N,2035.0,,Improvements to be confirmed,10.0,15.0,,,0.0,0.0,1.0,1.0,1.0,1.0,15.0,15.0,10.0,10.0,10.0,10.0
AnW0227,Anglian Water,CHELMSFORD WATER RECYCLING CENTRE,0.6655073,51.738667,Estuarine,Anglian,"Transitional, BLACKWATER",Maldon,BLACKWATER,N,N,N,Y,Y,32.0,21.0,7.0,N,2035.0,,Improvements to be confirmed,10.0,32.0,,,0.0,0.0,1.0,1.0,1.0,1.0,32.0,32.0,10.0,10.0,10.0,10.0
AnW0229,Anglian Water,CHELMSFORD-BUTTS WAY PS,0.449132,51.706406,Inland,Anglian,Combined Essex,Chelmsford,Wid (Margaretting Hall - R. Can),N,N,N,N,,0.0,0.0,0.0,Y,2023.0,,Improvements to be confirmed,10.0,0.0,Y,Y,1.0,1.0,1.0,1.0,1.0,1.0,10.0,10.0,10.0,10.0,10.0,10.0
AnW0230,Anglian Water,CHELMSFORD-GALLEYWOOD ROAD PS,0.46257505,51.708733,Inland,Anglian,Combined Essex,Chelmsford,Wid (Margaretting Hall - R. Can),N,N,N,N,,8.0,14.0,3.0,Y,2023.0,,Operational (e.g. blockages). Other improvements to be confirmed,10.0,8.0,Y,Y,1.0,1.0,1.0,1.0,1.0,1.0,10.0,10.0,10.0,10.0,10.0,10.0
AnW0231,Anglian Water,CHELMSFORD - N MLBN CHIGNAL ROAD PS,0.43994159,51.753452,Inland,Anglian,Combined Essex,Chelmsford,Chignall Brook,N,N,N,N,,2.0,0.0,6.0,Y,2023.0,,Improvements to be confirmed,10.0,2.0,Y,Y,1.0,1.0,1.0,1.0,1.0,1.0,10.0,10.0,10.0,10.0,10.0,10.0
AnW0232,Anglian Water,CHELSWORTH CAKEBRIDGE LANE PS,0.88377804,52.09586,Inland,Anglian,Combined Essex,Babergh,Old River Brett,N,N,N,N,,6.0,6.0,0.0,Y,2023.0,,Improvements to be confirmed,10.0,6.0,Y,Y,1.0,1.0,1.0,1.0,1.0,1.0,10.0,10.0,10.0,10.0,10.0,10.0
AnW0236,Anglian Water,CHIPPENHAM STW,0.4429976,52.304554,Inland,Anglian,Cam and Ely Ouse,East Cambridgeshire,Lee Brook,N,N,N,N,,9.0,1.0,19.0,Y,2023.0,,Improvements to be confirmed,10.0,9.0,Y,Y,1.0,1.0,1.0,1.0,1.0,1.0,10.0,10.0,10.0,10.0,10.0,10.0
AnW0238,Anglian Water,CLARENDON / HOLLAND ROAD CSO,1.1818063,51.793716,Coastal,Anglian,"Coastal, Essex",Tendring,Essex,N,N,N,N,,0.0,0.0,0.0,N,2023.0,,Improvements to be confirmed,10.0,0.0,Y,Y,1.0,1.0,1.0,1.0,1.0,1.0,10.0,10.0,10.0,10.0,10.0,10.0
AnW0239,Anglian Water,CLACTON COLLINGWOOD RD/WASH LN CSO,1.1460575,51.781746,Coastal,Anglian,"Coastal, Essex",Tendring,Essex,Y,N,N,Y,Y,2.0,6.0,1.0,N,2023.0,,Improvements to be confirmed,10.0,2.0,Y,Y,1.0,1.0,1.0,1.0,1.0,1.0,10.0,10.0,10.0,10.0,10.0,10.0
AnW0240,Anglian Water,CLACTON GOLF GREEN ROAD JAYWICK CSO,1.1197639,51.77955,Coastal,Anglian,Combined Essex,Tendring,Not part of a river WB catchment,N,N,N,N,,8.0,8.0,8.0,N,2023.0,,Operational (e.g. blockages). Other improvements to be confirmed,10.0,8.0,Y,Y,1.0,1.0,1.0,1.0,1.0,1.0,10.0,10.0,10.0,10.0,10.0,10.0
AnW0241,Anglian Water,CLACTON SEA FRONT / GUNFLEET CSO,1.1807493,51.79518,Coastal,Anglian,"Coastal, Essex",Tendring,Essex,Y,N,N,N,,0.0,4.0,1.0,N,2023.0,,Improvements to be confirmed,10.0,0.0,Y,Y,1.0,1.0,1.0,1.0,1.0,1.0,10.0,10.0,10.0,10.0,10.0,10.0
AnW0244,Anglian Water,CLACTON PARK ROAD/VICARAGE GRD CSO,1.1459743,51.78171,Coastal,Anglian,"Coastal, Essex",Tendring,Essex,N,N,N,Y,Y,1.0,4.0,1.0,N,2023.0,,Operational (e.g. blockages). Other improvements to be confirmed,10.0,1.0,Y,Y,1.0,1.0,1.0,1.0,1.0,1.0,10.0,10.0,10.0,10.0,10.0,10.0
AnW0245,Anglian Water,JAYWICK CLACTON 23 PARK SQUARE CSO,1.1104177,51.780697,Coastal,Anglian,Combined Essex,Tendring,Not part of a river WB catchment,N,N,N,N,,9.0,27.0,11.0,N,2035.0,,Improvements to be confirmed,10.0,9.0,Y,Y,1.0,1.0,1.0,1.0,1.0,1.0,9.0,9.0,10.0,10.0,10.0,10.0
AnW0246,Anglian Water,CLACTON VICTORIA ROAD CSO,1.1674364,51.791496,Coastal,Anglian,"Coastal, Essex",Tendring,Essex,N,N,N,Y,Y,5.0,5.0,3.0,N,2023.0,,Improvements to be confirmed,10.0,5.0,Y,Y,1.0,1.0,1.0,1.0,1.0,1.0,10.0,10.0,10.0,10.0,10.0,10.0
AnW0247,Anglian Water,CLACTON WEST ROAD TERMINAL PS,1.1401789,51.777027,Coastal,Anglian,"Coastal, Essex",Tendring,Essex,Y,N,N,Y,Y,4.0,10.0,6.0,N,2023.0,,Improvements to be confirmed,10.0,4.0,Y,Y,1.0,1.0,1.0,1.0,1.0,1.0,10.0,10.0,10.0,10.0,10.0,10.0
AnW0248,Anglian Water,IPSWICH ROAD TERMINAL PS,1.1049265,52.107418,Inland,Anglian,East Suffolk,Mid Suffolk,Gipping (d/s Stowmarket),N,N,N,N,,1.0,1.0,0.0,Y,2023.0,,Improvements to be confirmed,10.0,1.0,Y,Y,1.0,1.0,1.0,1.0,1.0,1.0,10.0,10.0,10.0,10.0,10.0,10.0
AnW0250,Anglian Water,WELFEN LANE TERMINAL PUMPING STATIO,-0.74086505,53.03514,Inland,Anglian,Witham,South Kesteven,Witham - conf Cringle Bk to conf Brant,N,N,N,N,,5.0,5.0,30.0,N,2040.0,,Operational (e.g. blockages). Other improvements to be confirmed,10.0,5.0,Y,Y,1.0,1.0,1.0,1.0,1.0,1.0,5.0,5.0,5.0,10.0,10.0,10.0
AnW0255,Anglian Water,CLOPHILL (CAUSEWAY) CSO,-0.41758946,52.02826,Inland,Anglian,Upper and Bedford Ouse,Central Bedfordshire,Flit and Ivel Navigation d/s of Shefford,N,N,N,N,,7.0,5.0,6.0,Y,2023.0,,"Spill treatment, New screen. Other improvements to be confirmed",10.0,7.0,Y,Y,1.0,1.0,1.0,1.0,1.0,1.0,10.0,10.0,10.0,10.0,10.0,10.0
AnW0256,Anglian Water,CODDENHAM - BLACKSMITHS LANE TPS,1.1142617,52.147015,Inland,Anglian,East Suffolk,Mid Suffolk,Coddenham Watercourse,N,N,N,N,,5.0,7.0,3.0,Y,2023.0,,Operational (e.g. blockages). Other improvements to be confirmed,10.0,5.0,Y,Y,1.0,1.0,1.0,1.0,1.0,1.0,10.0,10.0,10.0,10.0,10.0,10.0
AnW0260,Anglian Water,COGGESHALL EAST STREET RO 18 CSO,0.6877058,51.87018,Inland,Anglian,Combined Essex,Braintree,Blackwater (Combined Essex),N,N,N,N,,0.0,1.0,0.0,Y,2023.0,,Improvements to be confirmed,10.0,0.0,Y,Y,1.0,1.0,1.0,1.0,1.0,1.0,10.0,10.0,10.0,10.0,10.0,10.0
AnW0263,Anglian Water,COLCHESTER WATER RECYCLING CENTRE,0.936737,51.874416,Estuarine,Anglian,Combined Essex,Colchester,Not part of a river WB catchment,N,N,N,Y,Y,81.0,28.0,6.0,N,2040.0,Y,Storage. Other improvements to be confirmed,10.0,81.0,,,0.0,0.0,0.0,1.0,1.0,1.0,81.0,81.0,81.0,10.0,10.0,10.0
AnW0266,Anglian Water,COLCHESTER-BOURNE MILL  CSO,0.91275203,51.87696,Inland,Anglian,Combined Essex,Colchester,Not part of a river WB catchment,N,N,N,N,,0.0,1.0,0.0,Y,2023.0,,Improvements to be confirmed,10.0,0.0,Y,Y,1.0,1.0,1.0,1.0,1.0,1.0,10.0,10.0,10.0,10.0,10.0,10.0
AnW0269,Anglian Water,COLCHESTER-EAST BAY MAIN INT CSO,0.916671,51.888103,Inland,Anglian,"Transitional, COLNE",Colchester,COLNE,N,N,N,Y,Y,7.0,7.0,1.0,Y,2023.0,,Improvements to be confirmed,10.0,7.0,Y,Y,1.0,1.0,1.0,1.0,1.0,1.0,10.0,10.0,10.0,10.0,10.0,10.0
AnW0272,Anglian Water,COLCHESTER-HAVEN ROAD CSO,0.935099,51.876495,Estuarine,Anglian,Combined Essex,Colchester,Not part of a river WB catchment,N,N,N,Y,Y,12.0,15.0,13.0,N,2035.0,Y,"Spill treatment, New screen, Nature-Based (e.g SuDS or Wetland Treatment). Other improvements to be confirmed",10.0,12.0,,,0.0,0.0,1.0,1.0,1.0,1.0,12.0,12.0,10.0,10.0,10.0,10.0
AnW0273,Anglian Water,COLCHESTER HUNTING GATE CSO,0.92388564,51.887295,Estuarine,Anglian,Combined Essex,Colchester,Not part of a river WB catchment,N,N,N,Y,Y,4.0,5.0,1.0,Y,2023.0,,Improvements to be confirmed,10.0,4.0,Y,Y,1.0,1.0,1.0,1.0,1.0,1.0,10.0,10.0,10.0,10.0,10.0,10.0
AnW0274,Anglian Water,HYTHE BRIDGE,0.92373466,51.88721,Estuarine,Anglian,Combined Essex,Colchester,Not part of a river WB catchment,N,N,N,Y,Y,8.0,7.0,12.0,Y,2023.0,,Improvements to be confirmed,10.0,8.0,Y,Y,1.0,1.0,1.0,1.0,1.0,1.0,10.0,10.0,10.0,10.0,10.0,10.0
AnW0284,Anglian Water,COLCHESTER - SHEARWATER MEWS CSO,0.95136917,51.894165,Inland,Anglian,Combined Essex,Colchester,Salary Brook,N,N,N,N,,0.0,1.0,0.0,Y,2023.0,,Improvements to be confirmed,10.0,0.0,Y,Y,1.0,1.0,1.0,1.0,1.0,1.0,10.0,10.0,10.0,10.0,10.0,10.0
AnW0291,Anglian Water,COMBS FORD TPS,0.99881154,52.180225,Inland,Anglian,East Suffolk,Mid Suffolk,Rattlesden River (d/s Gt. Finborough),N,N,N,N,,6.0,0.0,0.0,Y,2023.0,,Improvements to be confirmed,10.0,6.0,Y,Y,1.0,1.0,1.0,1.0,1.0,1.0,10.0,10.0,10.0,10.0,10.0,10.0
AnW0293,Anglian Water,CONINGSBY WATER RECYCLING CENTRE,-0.18792564,53.093903,Inland,Anglian,Witham,East Lindsey,Bain - Lower,N,N,N,N,,95.0,87.0,29.0,N,2035.0,Y,Storage. Other improvements to be confirmed,10.0,95.0,,,0.0,0.0,1.0,1.0,1.0,1.0,95.0,95.0,10.0,10.0,10.0,10.0
AnW0294,Anglian Water,CONINGTON - FEN DRAYTON RD PS,-0.060357653,52.282696,Inland,Anglian,Upper and Bedford Ouse,South Cambridgeshire,Fen Drayton Drain,N,N,N,N,,6.0,25.0,1.0,N,2040.0,,Operational (e.g. blockages). Other improvements to be confirmed,10.0,6.0,Y,Y,1.0,1.0,1.0,1.0,1.0,1.0,6.0,6.0,6.0,10.0,10.0,10.0
AnW0297,Anglian Water,CORBY STUDFALL AVENUE CSO,-0.69617337,52.50226,Inland,Anglian,Nene,North Northamptonshire,Northern Stream,N,N,N,N,,2.0,1.0,1.0,Y,2023.0,,Operational (e.g. blockages). Other improvements to be confirmed,10.0,2.0,Y,Y,1.0,1.0,1.0,1.0,1.0,1.0,10.0,10.0,10.0,10.0,10.0,10.0
AnW0298,Anglian Water,CORTON BAKERS SCORE PUMPING STATION,1.7488999,52.51916,Coastal,Anglian,"Coastal, Norfolk East",East Suffolk,Norfolk East,N,N,Y,N,Y,20.0,24.0,19.0,N,2030.0,Y,"Smart sewers, Nature-Based (e.g SuDS or Wetland Treatment). Other improvements to be confirmed",10.0,20.0,,,0.0,1.0,1.0,1.0,1.0,1.0,20.0,10.0,10.0,10.0,10.0,10.0
AnW0299,Anglian Water,CORTON - CHURCH LANE TPS,1.7488402,52.519226,Coastal,Anglian,"Coastal, Norfolk East",East Suffolk,Norfolk East,N,N,Y,N,Y,3.0,4.0,1.0,Y,2023.0,Y,Storage. Other improvements to be confirmed,10.0,3.0,Y,Y,1.0,1.0,1.0,1.0,1.0,1.0,10.0,10.0,10.0,10.0,10.0,10.0
AnW0305,Anglian Water,COTTON VALLEY WATER RECYCLING CTR,-0.710751,52.098274,Inland,Anglian,Upper and Bedford Ouse,Milton Keynes,Ouse (Newport Pagnell to Roxton),N,N,N,N,,10.0,10.0,1.0,Y,2023.0,,Storage. Other improvements to be confirmed,10.0,10.0,Y,Y,1.0,1.0,1.0,1.0,1.0,1.0,10.0,10.0,10.0,10.0,10.0,10.0
AnW0307,Anglian Water,COVENEY - SCHOOL LANE PS,0.19104457,52.415604,Inland,Anglian,Cam and Ely Ouse,East Cambridgeshire,Not part of a river WB catchment,N,N,N,N,,0.0,2.0,7.0,Y,2023.0,,Improvements to be confirmed,10.0,0.0,Y,Y,1.0,1.0,1.0,1.0,1.0,1.0,10.0,10.0,10.0,10.0,10.0,10.0
AnW0311,Anglian Water,GREAT CRANSLEY TPS,-0.7749374,52.382175,Inland,Anglian,Nene,North Northamptonshire,Loddington Arm (Ise),N,N,N,N,,4.0,10.0,2.0,Y,2023.0,,Operational (e.g. blockages). Other improvements to be confirmed,10.0,4.0,Y,Y,1.0,1.0,1.0,1.0,1.0,1.0,10.0,10.0,10.0,10.0,10.0,10.0
AnW0315,Anglian Water,CROMER PROMENADE TERMINAL PS,1.2951951,52.933643,Coastal,Anglian,North Norfolk Rivers,North Norfolk,Not part of a river WB catchment,Y,N,N,Y,Y,2.0,2.0,0.0,Y,2023.0,,Operational (e.g. blockages). Other improvements to be confirmed,10.0,2.0,Y,Y,1.0,1.0,1.0,1.0,1.0,1.0,10.0,10.0,10.0,10.0,10.0,10.0
AnW0328,Anglian Water,DEANSHANGER CSO,-0.87026715,52.048306,Inland,Anglian,Upper and Bedford Ouse,West Northamptonshire,Ouse (Buckingham to Cosgrove),N,N,N,N,,0.0,0.0,3.0,Y,2023.0,,Improvements to be confirmed,10.0,0.0,Y,Y,1.0,1.0,1.0,1.0,1.0,1.0,10.0,10.0,10.0,10.0,10.0,10.0
AnW0332,Anglian Water,DENFORD PS,-0.5415231,52.380608,Inland,Anglian,Nene,North Northamptonshire,Nene - conf Ise to Islip,N,N,Y,N,Y,12.0,22.0,4.0,N,2030.0,Y,"Storage, Operational (e.g. blockages). Other improvements to be confirmed",10.0,12.0,,,0.0,1.0,1.0,1.0,1.0,1.0,12.0,10.0,10.0,10.0,10.0,10.0
AnW0338,Anglian Water,DESBOROUGH - HILLTOP AVENUE CSO,-0.82208085,52.43813,Inland,Anglian,Nene,North Northamptonshire,Ise - Upper,N,N,N,N,,7.0,2.0,5.0,Y,2023.0,,Improvements to be confirmed,10.0,7.0,Y,Y,1.0,1.0,1.0,1.0,1.0,1.0,10.0,10.0,10.0,10.0,10.0,10.0
AnW0342,Anglian Water,DICKLEBURGH WATER RECYCLING CENTRE,1.1904026,52.399685,Inland,Anglian,Broadland Rivers,South Norfolk,Dickleburgh Stream,N,N,N,N,,0.0,18.0,34.0,N,2040.0,,Improvements to be confirmed,10.0,0.0,Y,Y,1.0,1.0,1.0,1.0,1.0,1.0,0.0,0.0,0.0,10.0,10.0,10.0
AnW0347,Anglian Water,SARACENS HEAD/MOUNT STREET CSO,1.1115406,52.37175,Inland,Anglian,Broadland Rivers,South Norfolk,Waveney (u/s Frenze Beck),N,N,N,N,,4.0,4.0,6.0,Y,2023.0,,Improvements to be confirmed,10.0,4.0,Y,Y,1.0,1.0,1.0,1.0,1.0,1.0,10.0,10.0,10.0,10.0,10.0,10.0
AnW0357,Anglian Water,DENNIS SNEEZUM COURT CSO,0.3740769,52.60063,Inland,Anglian,North West Norfolk,King's Lynn and West Norfolk,Relief Channel,N,N,N,N,,0.0,6.0,9.0,Y,2023.0,,Improvements to be confirmed,10.0,0.0,Y,Y,1.0,1.0,1.0,1.0,1.0,1.0,10.0,10.0,10.0,10.0,10.0,10.0
AnW0358,Anglian Water,DOWNHAM MARKET - RAILWAY CSO,0.36331993,52.603813,Inland,Anglian,North West Norfolk,King's Lynn and West Norfolk,Relief Channel,N,N,Y,N,Y,0.0,9.0,13.0,Y,2023.0,Y,Storage. Other improvements to be confirmed,10.0,0.0,Y,Y,1.0,1.0,1.0,1.0,1.0,1.0,10.0,10.0,10.0,10.0,10.0,10.0
AnW0360,Anglian Water,LYNN ROAD CSO,0.3714496,52.609406,Inland,Anglian,North West Norfolk,King's Lynn and West Norfolk,Relief Channel,N,N,N,N,,0.0,4.0,2.0,Y,2023.0,,Improvements to be confirmed,10.0,0.0,Y,Y,1.0,1.0,1.0,1.0,1.0,1.0,10.0,10.0,10.0,10.0,10.0,10.0
AnW0366,Anglian Water,DULLINGHAM WATER RECYCLING CENTRE,0.37143922,52.20341,Inland,Anglian,Cam and Ely Ouse,East Cambridgeshire,Soham Lode,N,N,Y,N,Y,28.0,25.0,23.0,N,2030.0,Y,Storage. Other improvements to be confirmed,10.0,28.0,,,0.0,1.0,1.0,1.0,1.0,1.0,28.0,10.0,10.0,10.0,10.0,10.0
AnW0372,Anglian Water,EAST HANNINGFIELD OLD CHURCH RD PS,0.554121,51.67638,Inland,Anglian,Combined Essex,Chelmsford,Sandon Brook (West arm),N,N,N,N,,8.0,9.0,1.0,Y,2023.0,,Improvements to be confirmed,10.0,8.0,Y,Y,1.0,1.0,1.0,1.0,1.0,1.0,10.0,10.0,10.0,10.0,10.0,10.0
AnW0373,Anglian Water,E TILBURY BATA (LINFORD),0.42611524,51.48142,Inland,Thames,South Essex,Thurrock,Not part of a river WB catchment,N,N,N,N,,4.0,22.0,3.0,Y,2023.0,,Operational (e.g. blockages). Other improvements to be confirmed,10.0,4.0,Y,Y,1.0,1.0,1.0,1.0,1.0,1.0,10.0,10.0,10.0,10.0,10.0,10.0
AnW0374,Anglian Water,EAGLE PUMPING STATION,-0.68858284,53.190277,Inland,Anglian,Witham,North Kesteven,Boultham Catchwater Drain,N,N,N,N,,1.0,2.0,3.0,Y,2023.0,,Improvements to be confirmed,10.0,1.0,Y,Y,1.0,1.0,1.0,1.0,1.0,1.0,10.0,10.0,10.0,10.0,10.0,10.0
AnW0376,Anglian Water,EARLS BARTON TPS,-0.745345,52.250664,Inland,Anglian,Nene,North Northamptonshire,Nene - conf Brampton Branch to conf Ise,N,N,Y,N,Y,37.0,42.0,33.0,N,2030.0,Y,"Storage, Smart sewers, Spill treatment, New screen, Operational (e.g. blockages). Other improvements to be confirmed",10.0,37.0,,,0.0,1.0,1.0,1.0,1.0,1.0,37.0,10.0,10.0,10.0,10.0,10.0
AnW0379,Anglian Water,EARLS COLNE CHURCH HILL #3 CSO,0.7061245,51.925243,Inland,Anglian,Combined Essex,Braintree,Colne (d/s Doe's Corner),N,N,N,N,,0.0,5.0,41.0,N,2040.0,,Improvements to be confirmed,10.0,0.0,Y,Y,1.0,1.0,1.0,1.0,1.0,1.0,0.0,0.0,0.0,10.0,10.0,10.0
AnW0380,Anglian Water,EARLS COLNE,0.7132594,51.927776,Inland,Anglian,Combined Essex,Braintree,Colne (d/s Doe's Corner),N,N,N,N,,1.0,1.0,1.0,Y,2023.0,,Operational (e.g. blockages). Other improvements to be confirmed,10.0,1.0,Y,Y,1.0,1.0,1.0,1.0,1.0,1.0,10.0,10.0,10.0,10.0,10.0,10.0
AnW0381,Anglian Water,EARLS COLNE ST ANDREWS CHURCH CSO,0.7086001,51.927704,Inland,Anglian,Combined Essex,Braintree,Colne (d/s Doe's Corner),N,N,N,N,,0.0,6.0,7.0,Y,2023.0,,Operational (e.g. blockages). Other improvements to be confirmed,10.0,0.0,Y,Y,1.0,1.0,1.0,1.0,1.0,1.0,10.0,10.0,10.0,10.0,10.0,10.0
AnW0391,Anglian Water,EIGHT ASH GREEN - HEATHFIELDS SPS,0.82749337,51.898376,Inland,Anglian,Combined Essex,Colchester,Colne (d/s Doe's Corner),N,N,N,N,,4.0,7.0,3.0,Y,2023.0,,Operational (e.g. blockages). Other improvements to be confirmed,10.0,4.0,Y,Y,1.0,1.0,1.0,1.0,1.0,1.0,10.0,10.0,10.0,10.0,10.0,10.0
AnW0395,Anglian Water,ELMSTEAD-HOLLY WAY THATCHERS DR PS,0.99037915,51.884007,Inland,Anglian,Combined Essex,Tendring,Sixpenny Brook,N,N,N,N,,0.0,0.0,0.0,Y,2023.0,,Improvements to be confirmed,10.0,0.0,Y,Y,1.0,1.0,1.0,1.0,1.0,1.0,10.0,10.0,10.0,10.0,10.0,10.0
AnW0398,Anglian Water,ELSWORTH - ROGERS CLOSE PS,-0.071281575,52.257336,Inland,Anglian,Upper and Bedford Ouse,South Cambridgeshire,Fen Drayton Drain,N,N,N,N,,7.0,18.0,10.0,N,2040.0,,Improvements to be confirmed,10.0,7.0,Y,Y,1.0,1.0,1.0,1.0,1.0,1.0,7.0,7.0,7.0,10.0,10.0,10.0
AnW0399,Anglian Water,ELTON WRC,-0.40107974,52.53865,Inland,Anglian,Nene,Huntingdonshire,Nene - Islip to tidal,N,N,N,N,,0.0,4.0,2.0,Y,2023.0,,Improvements to be confirmed,10.0,0.0,Y,Y,1.0,1.0,1.0,1.0,1.0,1.0,10.0,10.0,10.0,10.0,10.0,10.0
AnW0401,Anglian Water,ELY WATER RECYCLING CENTRE (OLD),0.27371684,52.39615,Inland,Anglian,Cam and Ely Ouse,East Cambridgeshire,Ely Ouse (South Level),N,N,Y,N,Y,88.0,12.0,16.0,N,2030.0,Y,Storage. Other improvements to be confirmed,10.0,88.0,,,0.0,1.0,1.0,1.0,1.0,1.0,88.0,10.0,10.0,10.0,10.0,10.0
AnW0405,Anglian Water,ELY WILLOW WALK TPS,0.27327168,52.396065,Inland,Anglian,Cam and Ely Ouse,East Cambridgeshire,Ely Ouse (South Level),N,N,Y,N,Y,1.0,2.0,0.0,Y,2023.0,,"Spill treatment, New screen. Other improvements to be confirmed",10.0,1.0,Y,Y,1.0,1.0,1.0,1.0,1.0,1.0,10.0,10.0,10.0,10.0,10.0,10.0
AnW0408,Anglian Water,ESSENDINE TERMINAL PUMPING STATION,-0.44667736,52.70055,Inland,Anglian,Welland,Rutland,West Glen - conf West Glen trib to conf East Glen River,N,N,N,N,,10.0,38.0,11.0,N,2040.0,,Operational (e.g. blockages). Other improvements to be confirmed,10.0,10.0,Y,Y,1.0,1.0,1.0,1.0,1.0,1.0,10.0,10.0,10.0,10.0,10.0,10.0
AnW0413,Anglian Water,EYE - KINGS BRIDGE LOWGATE ST TPS,1.1494299,52.317772,Inland,Anglian,Broadland Rivers,Mid Suffolk,Dove,N,N,N,N,,2.0,0.0,0.0,Y,2023.0,,Improvements to be confirmed,10.0,2.0,Y,Y,1.0,1.0,1.0,1.0,1.0,1.0,10.0,10.0,10.0,10.0,10.0,10.0
AnW0415,Anglian Water,FAKENHAM (OLD AND NEW) WRC,0.85217273,52.82587,Inland,Anglian,Broadland Rivers,North Norfolk,Wensum US Norwich,N,N,Y,N,Y,39.0,79.0,1.0,N,2030.0,Y,"Storage, Nature-Based (e.g SuDS or Wetland Treatment). Other improvements to be confirmed",10.0,39.0,,,0.0,1.0,1.0,1.0,1.0,1.0,39.0,10.0,10.0,10.0,10.0,10.0
AnW0416,Anglian Water,FAKENHAM NORWICH ROAD CSO,0.8505951,52.826717,Inland,Anglian,Broadland Rivers,North Norfolk,Wensum US Norwich,N,N,Y,N,Y,10.0,14.0,1.0,Y,2023.0,Y,Nature-Based (e.g SuDS or Wetland Treatment). Other improvements to be confirmed,10.0,10.0,Y,Y,1.0,1.0,1.0,1.0,1.0,1.0,10.0,10.0,10.0,10.0,10.0,10.0
AnW0422,Anglian Water,FISHTOFT STW,0.034192476,52.98045,Inland,Anglian,Witham,Boston,East & West Fen Drains,N,N,N,N,,4.0,2.0,5.0,Y,2023.0,,Improvements to be confirmed,10.0,4.0,Y,Y,1.0,1.0,1.0,1.0,1.0,1.0,10.0,10.0,10.0,10.0,10.0,10.0
AnW0432,Anglian Water,FORNHAM WRC,0.69825596,52.278133,Inland,Anglian,Cam and Ely Ouse,West Suffolk,Lark (Abbey Gardens to Mildenhall),N,N,Y,N,Y,16.0,0.0,7.0,N,2040.0,Y,Storage. Other improvements to be confirmed,10.0,16.0,,,0.0,0.0,0.0,1.0,1.0,1.0,16.0,16.0,16.0,10.0,10.0,10.0
AnW0442,Anglian Water,HOLLAND ROAD/SECOND AVENUE,1.2379364,51.82807,Inland,Anglian,Combined Essex,Tendring,Holland Brook,N,N,N,N,,10.0,10.0,3.0,N,2023.0,,Operational (e.g. blockages). Other improvements to be confirmed,10.0,10.0,Y,Y,1.0,1.0,1.0,1.0,1.0,1.0,10.0,10.0,10.0,10.0,10.0,10.0
AnW0443,Anglian Water,QUEENS ROAD/ESPLANADE CSO,1.2506343,51.831047,Coastal,Anglian,Combined Essex,Tendring,Not part of a river WB catchment,Y,N,N,N,,2.0,4.0,1.0,N,2023.0,,Operational (e.g. blockages). Other improvements to be confirmed,10.0,2.0,Y,Y,1.0,1.0,1.0,1.0,1.0,1.0,10.0,10.0,10.0,10.0,10.0,10.0
AnW0446,Anglian Water,FRINTON UPPER 2ND AV/THE CLOSE CSO,1.2356635,51.83281,Inland,Anglian,Combined Essex,Tendring,Holland Brook,Y,N,N,N,,54.0,60.0,43.0,N,2030.0,Y,Improvements to be confirmed,10.0,54.0,,,0.0,1.0,1.0,1.0,1.0,1.0,54.0,10.0,10.0,10.0,10.0,10.0
AnW0463,Anglian Water,WHITE HART TPS,-0.1663662,52.32152,Inland,Anglian,Upper and Bedford Ouse,Huntingdonshire,Ouse (Roxton to Earith),N,N,N,N,,2.0,5.0,1.0,Y,2023.0,,Operational (e.g. blockages). Other improvements to be confirmed,10.0,2.0,Y,Y,1.0,1.0,1.0,1.0,1.0,1.0,10.0,10.0,10.0,10.0,10.0,10.0
AnW0464,Anglian Water,GTYARMOUTH GORLESTON/BRUSH BEND CSO,1.7324493,52.572422,Estuarine,Anglian,Broadland Rivers,Great Yarmouth,Not part of a river WB catchment,Y,N,Y,N,Y,18.0,9.0,22.0,N,2030.0,Y,Improvements to be confirmed,10.0,18.0,,,0.0,1.0,1.0,1.0,1.0,1.0,18.0,10.0,10.0,10.0,10.0,10.0
AnW0468,Anglian Water,GRANBOROUGH - BATES CLOSE TPS,-0.8834502,51.92282,Inland,Anglian,Upper and Bedford Ouse,Buckinghamshire,Claydon Brook,N,N,N,N,,0.0,0.0,0.0,Y,2023.0,,Improvements to be confirmed,10.0,0.0,Y,Y,1.0,1.0,1.0,1.0,1.0,1.0,10.0,10.0,10.0,10.0,10.0,10.0
AnW0473,Anglian Water,GREAT BILLING WRC,-0.78300834,52.248745,Inland,Anglian,Nene,North Northamptonshire,Nene - conf Brampton Branch to conf Ise,N,N,N,N,,111.0,94.0,34.0,N,2030.0,Y,Storage. Other improvements to be confirmed,10.0,111.0,,,0.0,1.0,1.0,1.0,1.0,1.0,111.0,10.0,10.0,10.0,10.0,10.0
AnW0478,Anglian Water,GREAT CHESTERFORD WRC,0.1846345,52.07384,Inland,Anglian,Cam and Ely Ouse,Uttlesford,Cam (Audley End to Stapleford),N,N,N,N,,6.0,2.0,4.0,Y,2023.0,,Improvements to be confirmed,10.0,6.0,Y,Y,1.0,1.0,1.0,1.0,1.0,1.0,10.0,10.0,10.0,10.0,10.0,10.0
AnW0509,Anglian Water,GRIMSBY RIBY ST.PS O.F,-0.0539802,53.585167,Inland,Humber,"Transitional, HUMBER LOWER",North East Lincolnshire,HUMBER LOWER,N,N,Y,N,Y,10.0,21.0,8.0,N,2030.0,Y,"Smart sewers, Spill treatment, New screen, Operational (e.g. blockages), Nature-Based (e.g SuDS or Wetland Treatment). Other improvements to be confirmed",10.0,10.0,Y,Y,1.0,1.0,1.0,1.0,1.0,1.0,10.0,10.0,10.0,10.0,10.0,10.0
AnW0510,Anglian Water,GRIMSCOTE PUMPING STATION,-1.04614,52.177982,Inland,Anglian,Nene,West Northamptonshire,Bugbrooke,N,N,N,N,,0.0,18.0,10.0,Y,2023.0,,Improvements to be confirmed,10.0,0.0,Y,Y,1.0,1.0,1.0,1.0,1.0,1.0,10.0,10.0,10.0,10.0,10.0,10.0
AnW0512,Anglian Water,GT BADDOW HIGH STREET TABORS,0.50005907,51.719093,Inland,Anglian,Combined Essex,Chelmsford,Chelmer (d/s confluence with Can),N,N,N,N,,3.0,11.0,24.0,N,2040.0,,Improvements to be confirmed,10.0,3.0,Y,Y,1.0,1.0,1.0,1.0,1.0,1.0,3.0,3.0,3.0,10.0,10.0,10.0
AnW0517,Anglian Water,GREAT BENTLEY - THORRINGTON ROAD PS,1.0531932,51.85442,Inland,Anglian,Combined Essex,Tendring,Not part of a river WB catchment,N,N,N,N,,42.0,58.0,3.0,N,2040.0,Y,"Smart sewers, Spill treatment, New screen, Operational (e.g. blockages). Other improvements to be confirmed",10.0,42.0,,,0.0,0.0,0.0,1.0,1.0,1.0,42.0,42.0,42.0,10.0,10.0,10.0
AnW0519,Anglian Water,GREAT COATES STATION ROAD PS,-0.13083889,53.575787,Inland,Humber,Louth Grimsby and Ancholme,North East Lincolnshire,Mawnbridge Drain,N,N,N,N,,3.0,3.0,3.0,Y,2023.0,,Operational (e.g. blockages). Other improvements to be confirmed,10.0,3.0,Y,Y,1.0,1.0,1.0,1.0,1.0,1.0,10.0,10.0,10.0,10.0,10.0,10.0
AnW0520,Anglian Water,GT EASTON - BRIDGEFOOT  TPS,0.32862055,51.90454,Inland,Anglian,Combined Essex,Uttlesford,Chelmer (Gt. Easton - R. Can),N,N,Y,N,Y,6.0,9.0,6.0,N,2023.0,Y,Improvements to be confirmed,10.0,6.0,Y,Y,1.0,1.0,1.0,1.0,1.0,1.0,10.0,10.0,10.0,10.0,10.0,10.0
AnW0527,Anglian Water,SEAVIEW ESTATE PS,0.81824315,51.54775,Inland,Anglian,Combined Essex,Rochford,Not part of a river WB catchment,N,Y,Y,Y,Y,2.0,6.0,4.0,N,2023.0,Y,"Spill treatment, New screen, Operational (e.g. blockages), Nature-Based (e.g SuDS or Wetland Treatment). Other improvements to be confirmed",10.0,2.0,Y,Y,1.0,1.0,1.0,1.0,1.0,1.0,10.0,10.0,10.0,10.0,10.0,10.0
AnW0528,Anglian Water,GREAT WALDINGFIELD - FOLLY ROAD PS,0.77916205,52.057182,Inland,Anglian,Combined Essex,Babergh,Box,N,N,N,N,,9.0,15.0,6.0,Y,2023.0,,Operational (e.g. blockages). Other improvements to be confirmed,10.0,9.0,Y,Y,1.0,1.0,1.0,1.0,1.0,1.0,10.0,10.0,10.0,10.0,10.0,10.0
AnW0529,Anglian Water,GREAT WALTHAM - HOWE STREET PS,0.46318838,51.805126,Inland,Anglian,Combined Essex,Chelmsford,Chelmer (Gt. Easton - R. Can),N,N,Y,N,Y,0.0,16.0,2.0,N,2023.0,Y,Nature-Based (e.g SuDS or Wetland Treatment). Other improvements to be confirmed,10.0,0.0,Y,Y,1.0,1.0,1.0,1.0,1.0,1.0,10.0,10.0,10.0,10.0,10.0,10.0
AnW0533,Anglian Water,GREAT YARMOUTH BOUNDARY ROAD PS,1.7256279,52.594673,Estuarine,Anglian,"Transitional, BURE & WAVENEY & YARE & LOTHING",Great Yarmouth,BURE & WAVENEY & YARE & LOTHING,N,N,Y,N,Y,6.0,2.0,4.0,N,2023.0,Y,"Spill treatment, New screen, Operational (e.g. blockages). Other improvements to be confirmed",10.0,6.0,Y,Y,1.0,1.0,1.0,1.0,1.0,1.0,10.0,10.0,10.0,10.0,10.0,10.0
AnW0534,Anglian Water,GREAT YARMOUTH BRYANTS QUAY PS,1.7267507,52.600937,Estuarine,Anglian,Broadland Rivers,Great Yarmouth,Not part of a river WB catchment,N,N,Y,N,Y,96.0,66.0,82.0,N,2030.0,Y,"Spill treatment, New screen, Operational (e.g. blockages). Other improvements to be confirmed",10.0,96.0,,,0.0,1.0,1.0,1.0,1.0,1.0,96.0,10.0,10.0,10.0,10.0,10.0
AnW0548,Anglian Water,HADDENHAM - NEW TOWN ROAD PS,0.13817179,52.356148,Inland,Anglian,Cam and Ely Ouse,East Cambridgeshire,Old West River,N,N,N,N,,9.0,27.0,14.0,N,2040.0,,Operational (e.g. blockages). Other improvements to be confirmed,10.0,9.0,Y,Y,1.0,1.0,1.0,1.0,1.0,1.0,9.0,9.0,9.0,10.0,10.0,10.0
AnW0559,Anglian Water,HALSTEAD (LANGLEY) WRC,0.6704993,51.93523,Inland,Anglian,Combined Essex,Braintree,Colne (d/s Doe's Corner),N,N,Y,N,Y,41.0,43.0,31.0,N,2030.0,Y,Storage. Other improvements to be confirmed,10.0,41.0,,,0.0,1.0,1.0,1.0,1.0,1.0,41.0,10.0,10.0,10.0,10.0,10.0
AnW0583,Anglian Water,HATFIELD PEVEREL CRABBS HILL PS,0.5853235,51.76698,Inland,Anglian,Combined Essex,Braintree,Ter,N,Y,Y,Y,Y,2.0,4.0,0.0,Y,2023.0,,Operational (e.g. blockages). Other improvements to be confirmed,10.0,2.0,Y,Y,1.0,1.0,1.0,1.0,1.0,1.0,10.0,10.0,10.0,10.0,10.0,10.0
AnW0587,Anglian Water,HAVERHILL WRC,0.45123658,52.076244,Inland,Anglian,Combined Essex,West Suffolk,Stour Brook,N,N,N,N,,10.0,5.0,5.0,Y,2023.0,,Improvements to be confirmed,10.0,10.0,Y,Y,1.0,1.0,1.0,1.0,1.0,1.0,10.0,10.0,10.0,10.0,10.0,10.0
AnW0590,Anglian Water,HAWKWELL - RECTORY ROAD CSO,0.68080145,51.594864,Inland,Anglian,Combined Essex,Rochford,Roach,N,N,N,N,,0.0,3.0,0.0,Y,2023.0,,Improvements to be confirmed,10.0,0.0,Y,Y,1.0,1.0,1.0,1.0,1.0,1.0,10.0,10.0,10.0,10.0,10.0,10.0
AnW0611,Anglian Water,HITCHIN WATER RECYCLING CENTRE,-0.27473953,51.966957,Inland,Anglian,Upper and Bedford Ouse,North Hertfordshire,Hiz (DS Hitchin),N,N,N,N,,4.0,0.0,23.0,Y,2023.0,,"Storage, Spill treatment. Other improvements to be confirmed",10.0,4.0,Y,Y,1.0,1.0,1.0,1.0,1.0,1.0,10.0,10.0,10.0,10.0,10.0,10.0
AnW0613,Anglian Water,BANCROFT RECREATION GROUND CSO,-0.27403218,51.951878,Inland,Anglian,Upper and Bedford Ouse,North Hertfordshire,Hiz (through Hitchin),N,N,N,N,,0.0,0.0,2.0,Y,2023.0,,Operational (e.g. blockages). Other improvements to be confirmed,10.0,0.0,Y,Y,1.0,1.0,1.0,1.0,1.0,1.0,10.0,10.0,10.0,10.0,10.0,10.0
AnW0623,Anglian Water,HOLT MAIN ROAD WRC,1.0742408,52.907375,Inland,Anglian,North Norfolk Rivers,North Norfolk,Glaven,N,N,N,N,,2.0,4.0,6.0,Y,2023.0,,Improvements to be confirmed,10.0,2.0,Y,Y,1.0,1.0,1.0,1.0,1.0,1.0,10.0,10.0,10.0,10.0,10.0,10.0
AnW0625,Anglian Water,HOLTON TETNEY LANE TPS,-0.056091618,53.506184,Inland,Humber,Louth Grimsby and Ancholme,East Lindsey,Waithe Beck lower catchment (to Tetney Lock),N,N,N,N,,0.0,3.0,1.0,Y,2023.0,,Operational (e.g. blockages). Other improvements to be confirmed,10.0,0.0,Y,Y,1.0,1.0,1.0,1.0,1.0,1.0,10.0,10.0,10.0,10.0,10.0,10.0
AnW0627,Anglian Water,HORHAM TERMINAL PUMPING STATION,1.245159,52.304295,Inland,Anglian,Broadland Rivers,Mid Suffolk,Chickering Beck,N,N,N,N,,9.0,51.0,7.0,N,2040.0,,Operational (e.g. blockages). Other improvements to be confirmed,10.0,9.0,Y,Y,1.0,1.0,1.0,1.0,1.0,1.0,9.0,9.0,9.0,10.0,10.0,10.0
AnW0631,Anglian Water,HORNCASTLE-THORNTON LANE TPS,-0.11449374,53.195255,Inland,Anglian,Witham,East Lindsey,Bain - Lower,N,N,N,N,,10.0,41.0,9.0,N,2040.0,Y,Operational (e.g. blockages). Other improvements to be confirmed,10.0,10.0,Y,Y,1.0,1.0,1.0,1.0,1.0,1.0,10.0,10.0,10.0,10.0,10.0,10.0
AnW0635,Anglian Water,HULLBRIDGE-FERRY ROAD 2 CSO,0.610014,51.616962,Inland,Anglian,Combined Essex,Rochford,Not part of a river WB catchment,N,N,N,N,,0.0,0.0,1.0,Y,2023.0,,Improvements to be confirmed,10.0,0.0,Y,Y,1.0,1.0,1.0,1.0,1.0,1.0,10.0,10.0,10.0,10.0,10.0,10.0
AnW0636,Anglian Water,FERRY RD SPS HULLBRIDGE,0.6124576,51.62932,Estuarine,Anglian,Combined Essex,Rochford,Not part of a river WB catchment,N,Y,Y,Y,Y,7.0,15.0,5.0,Y,2023.0,,Operational (e.g. blockages). Other improvements to be confirmed,10.0,7.0,Y,Y,1.0,1.0,1.0,1.0,1.0,1.0,10.0,10.0,10.0,10.0,10.0,10.0
AnW0637,Anglian Water,HULLBRIDGE - KESWICK AVENUE CSO,0.6191211,51.624584,Inland,Anglian,Combined Essex,Rochford,Not part of a river WB catchment,N,N,N,N,,0.0,0.0,0.0,Y,2023.0,,Improvements to be confirmed,10.0,0.0,Y,Y,1.0,1.0,1.0,1.0,1.0,1.0,10.0,10.0,10.0,10.0,10.0,10.0
AnW0640,Anglian Water,HUMBERSTON - HUMBERSTON ROAD CSO,-0.031081375,53.534992,Inland,Humber,Louth Grimsby and Ancholme,North East Lincolnshire,Buck Beck from Source to N Sea,N,N,N,N,,63.0,57.0,35.0,N,2040.0,Y,Operational (e.g. blockages). Other improvements to be confirmed,10.0,63.0,,,0.0,0.0,0.0,1.0,1.0,1.0,63.0,63.0,63.0,10.0,10.0,10.0
AnW0643,Anglian Water,HUNSTANTON SOUTH END ROAD TPS,0.46842515,52.9332,Coastal,Anglian,"Coastal, Wash Outer",King's Lynn and West Norfolk,Wash Outer,Y,Y,Y,N,Y,22.0,35.0,7.0,N,2030.0,Y,"Storage, Operational (e.g. blockages). Other improvements to be confirmed",10.0,22.0,,,0.0,1.0,1.0,1.0,1.0,1.0,22.0,10.0,10.0,10.0,10.0,10.0
AnW0644,Anglian Water,HUNSTANTON SMUGGLERS LANE PS,0.5103429,52.95552,Inland,Anglian,North West Norfolk,King's Lynn and West Norfolk,Not part of a river WB catchment,N,N,N,N,,40.0,53.0,11.0,N,2030.0,Y,"Storage, Spill treatment, New screen, Operational (e.g. blockages). Other improvements to be confirmed",10.0,40.0,,,0.0,1.0,1.0,1.0,1.0,1.0,40.0,10.0,10.0,10.0,10.0,10.0
AnW0646,Anglian Water,HARTFORD ROAD CSO,-0.17437701,52.330097,Inland,Anglian,Upper and Bedford Ouse,Huntingdonshire,Ouse (Roxton to Earith),N,N,Y,N,Y,61.0,37.0,30.0,N,2030.0,Y,"Storage, Spill treatment, New screen. Other improvements to be confirmed",10.0,61.0,,,0.0,1.0,1.0,1.0,1.0,1.0,61.0,10.0,10.0,10.0,10.0,10.0
AnW0649,Anglian Water,IMMINGHAM WATER RECYCLING CENTRE,-0.16580543,53.62289,Estuarine,Humber,"Transitional, HUMBER LOWER",North East Lincolnshire,HUMBER LOWER,N,N,Y,N,Y,136.0,97.0,92.0,N,2030.0,Y,Storage. Other improvements to be confirmed,10.0,136.0,,,0.0,1.0,1.0,1.0,1.0,1.0,136.0,10.0,10.0,10.0,10.0,10.0
AnW0653,Anglian Water,INGOLDISTHORPE - SANDY LANE TPS,0.49634764,52.859783,Inland,Anglian,North West Norfolk,King's Lynn and West Norfolk,Ingol,N,N,N,N,,8.0,4.0,1.0,Y,2023.0,,"Spill treatment, New screen. Other improvements to be confirmed",10.0,8.0,Y,Y,1.0,1.0,1.0,1.0,1.0,1.0,10.0,10.0,10.0,10.0,10.0,10.0
AnW0654,Anglian Water,INGOLDMELLS HAVEN PS (WCR),0.3892365,53.19409,Coastal,Anglian,"Coastal, Lincolnshire",East Lindsey,Lincolnshire,N,N,N,N,,6.0,3.0,1.0,N,2023.0,,Improvements to be confirmed,10.0,6.0,Y,Y,1.0,1.0,1.0,1.0,1.0,1.0,10.0,10.0,10.0,10.0,10.0,10.0
AnW0655,Anglian Water,INGOLDMELLS WRC,0.38919458,53.194168,Coastal,Anglian,"Coastal, Lincolnshire",East Lindsey,Lincolnshire,Y,N,N,N,,10.0,7.0,87.0,N,2035.0,,Improvements to be confirmed,10.0,10.0,Y,Y,1.0,1.0,1.0,1.0,1.0,1.0,10.0,10.0,10.0,10.0,10.0,10.0
AnW0657,Anglian Water,INGRAVE PUMPING STATION,0.34842885,51.61484,Inland,Anglian,Combined Essex,Brentwood,Haverings Grove Brook,N,N,N,N,,7.0,21.0,9.0,N,2040.0,,Improvements to be confirmed,10.0,7.0,Y,Y,1.0,1.0,1.0,1.0,1.0,1.0,7.0,7.0,7.0,10.0,10.0,10.0
AnW0664,Anglian Water,IPSWICH-CLIFF QUAY WRC,1.1639253,52.02886,Estuarine,Anglian,"Transitional, ORWELL",Babergh,ORWELL,N,N,Y,N,Y,89.0,80.0,53.0,N,2030.0,Y,Smart sewers. Other improvements to be confirmed,10.0,89.0,,,0.0,1.0,1.0,1.0,1.0,1.0,89.0,10.0,10.0,10.0,10.0,10.0
AnW0668,Anglian Water,PORTMANS WALK TANK PUMPING STATION,1.1412665,52.053074,Inland,Anglian,East Suffolk,Ipswich,Gipping (d/s Stowmarket),N,N,N,N,,6.0,13.0,7.0,Y,2023.0,,Operational (e.g. blockages). Other improvements to be confirmed,10.0,6.0,Y,Y,1.0,1.0,1.0,1.0,1.0,1.0,10.0,10.0,10.0,10.0,10.0,10.0
AnW0671,Anglian Water,STOKE BRIDGE CSO,1.1531353,52.051632,Inland,Anglian,"Transitional, ORWELL",Ipswich,ORWELL,N,N,N,N,,6.0,8.0,8.0,Y,2023.0,,Improvements to be confirmed,10.0,6.0,Y,Y,1.0,1.0,1.0,1.0,1.0,1.0,10.0,10.0,10.0,10.0,10.0,10.0
AnW0675,Anglian Water,YARMOUTH ROAD CSO,1.1346903,52.05905,Inland,Anglian,East Suffolk,Ipswich,Gipping (d/s Stowmarket),N,N,N,N,,3.0,6.0,39.0,N,2040.0,,Improvements to be confirmed,10.0,3.0,Y,Y,1.0,1.0,1.0,1.0,1.0,1.0,3.0,3.0,3.0,10.0,10.0,10.0
AnW0680,Anglian Water,IRTHLINGBOROUGH PUMPING STATION,-0.5924096,52.33276,Inland,Anglian,Nene,North Northamptonshire,Nene - conf Ise to Islip,N,N,N,N,,1.0,4.0,1.0,Y,2023.0,,Operational (e.g. blockages). Other improvements to be confirmed,10.0,1.0,Y,Y,1.0,1.0,1.0,1.0,1.0,1.0,10.0,10.0,10.0,10.0,10.0,10.0
AnW0686,Anglian Water,JAYWICK WATER RECYCLING CENTRE,1.0963236,51.76758,Coastal,Anglian,"Coastal, Essex",Tendring,Essex,N,N,Y,Y,Y,88.0,100.0,50.0,N,2030.0,Y,"Storage, Smart sewers. Other improvements to be confirmed",10.0,88.0,,,0.0,1.0,1.0,1.0,1.0,1.0,88.0,10.0,10.0,10.0,10.0,10.0
AnW0687,Anglian Water,JAYWICK BROOKLANDS GARDENS PS,1.1031187,51.775764,Coastal,Anglian,Combined Essex,Tendring,Not part of a river WB catchment,Y,N,N,Y,Y,1.0,4.0,3.0,N,2023.0,,Improvements to be confirmed,10.0,1.0,Y,Y,1.0,1.0,1.0,1.0,1.0,1.0,10.0,10.0,10.0,10.0,10.0,10.0
AnW0694,Anglian Water,KEMPSTON VILLAGE HALL CSO,-0.51746404,52.120102,Inland,Anglian,Upper and Bedford Ouse,Bedford,Ouse (Newport Pagnell to Roxton),N,N,Y,N,Y,1.0,0.0,0.0,Y,2023.0,,"Spill treatment, New screen. Other improvements to be confirmed",10.0,1.0,Y,Y,1.0,1.0,1.0,1.0,1.0,1.0,10.0,10.0,10.0,10.0,10.0,10.0
AnW0709,Anglian Water,RAILWAY BRIDGE COMBINED SEWER OVERF,-0.9856421,52.5353,Inland,Anglian,Welland,Harborough,Langton Brook,N,N,N,N,,6.0,12.0,9.0,Y,2023.0,,Operational (e.g. blockages). Other improvements to be confirmed,10.0,6.0,Y,Y,1.0,1.0,1.0,1.0,1.0,1.0,10.0,10.0,10.0,10.0,10.0,10.0
AnW0713,Anglian Water,KINGS LYNN - FERRY STREET CSO,0.39159098,52.757732,Inland,Anglian,"Transitional, GREAT OUSE",King's Lynn and West Norfolk,GREAT OUSE,N,N,N,N,,7.0,4.0,10.0,Y,2023.0,,Improvements to be confirmed,10.0,7.0,Y,Y,1.0,1.0,1.0,1.0,1.0,1.0,10.0,10.0,10.0,10.0,10.0,10.0
AnW0715,Anglian Water,KINGS LYNN WRC,0.378371,52.773773,Estuarine,Anglian,"Transitional, GREAT OUSE",King's Lynn and West Norfolk,GREAT OUSE,N,N,N,N,,3.0,2.0,0.0,Y,2023.0,,"Storage, Smart sewers. Other improvements to be confirmed",10.0,3.0,Y,Y,1.0,1.0,1.0,1.0,1.0,1.0,10.0,10.0,10.0,10.0,10.0,10.0
AnW0716,Anglian Water,KINGS LYNN PAGESTAIR LANE CSO,0.3914774,52.757793,Estuarine,Anglian,"Transitional, GREAT OUSE",King's Lynn and West Norfolk,GREAT OUSE,N,N,N,N,,0.0,1.0,1.0,Y,2023.0,,Improvements to be confirmed,10.0,0.0,Y,Y,1.0,1.0,1.0,1.0,1.0,1.0,10.0,10.0,10.0,10.0,10.0,10.0
AnW0717,Anglian Water,KINGS LYNN TUESDAY MARKET PLACE CSO,0.39153397,52.75761,Estuarine,Anglian,"Transitional, GREAT OUSE",King's Lynn and West Norfolk,GREAT OUSE,N,N,N,N,,3.0,1.0,4.0,Y,2023.0,,Operational (e.g. blockages). Other improvements to be confirmed,10.0,3.0,Y,Y,1.0,1.0,1.0,1.0,1.0,1.0,10.0,10.0,10.0,10.0,10.0,10.0
AnW0718,Anglian Water,KINGS LYNN WATER LANE CSO,0.39148703,52.757736,Estuarine,Anglian,"Transitional, GREAT OUSE",King's Lynn and West Norfolk,GREAT OUSE,N,N,N,N,,8.0,1.0,13.0,Y,2023.0,,Improvements to be confirmed,10.0,8.0,Y,Y,1.0,1.0,1.0,1.0,1.0,1.0,10.0,10.0,10.0,10.0,10.0,10.0
AnW0719,Anglian Water,KINGS-LYNN-FRIARS CSO,0.39988178,52.74569,Inland,Anglian,North West Norfolk,King's Lynn and West Norfolk,Nar downstream of Abbey Farm,N,N,N,N,,3.0,2.0,2.0,Y,2023.0,,Improvements to be confirmed,10.0,3.0,Y,Y,1.0,1.0,1.0,1.0,1.0,1.0,10.0,10.0,10.0,10.0,10.0,10.0
AnW0720,Anglian Water,KINGS LYNN GAYWOOD CSO,0.38493612,52.767754,Estuarine,Anglian,"Transitional, GREAT OUSE",King's Lynn and West Norfolk,GREAT OUSE,N,N,Y,N,Y,53.0,59.0,36.0,N,2035.0,Y,"Smart sewers, Spill treatment, New screen, Operational (e.g. blockages). Other improvements to be confirmed",10.0,53.0,,,0.0,0.0,1.0,1.0,1.0,1.0,53.0,53.0,10.0,10.0,10.0,10.0
AnW0721,Anglian Water,KINGS LYNN - GAYWOOD OUTFALL 2 CSO,0.38451645,52.76821,Estuarine,Anglian,"Transitional, GREAT OUSE",King's Lynn and West Norfolk,GREAT OUSE,N,N,Y,N,Y,52.0,59.0,35.0,N,2035.0,Y,"Smart sewers, Spill treatment, New screen, Operational (e.g. blockages). Other improvements to be confirmed",10.0,52.0,,,0.0,0.0,1.0,1.0,1.0,1.0,52.0,52.0,10.0,10.0,10.0,10.0
AnW0725,Anglian Water,KINGS LYNN-MILLFLEET SO3 CSO,0.39837688,52.750668,Inland,Anglian,North West Norfolk,King's Lynn and West Norfolk,Gaywood River,N,N,N,N,,4.0,0.0,0.0,Y,2023.0,,Operational (e.g. blockages). Other improvements to be confirmed,10.0,4.0,Y,Y,1.0,1.0,1.0,1.0,1.0,1.0,10.0,10.0,10.0,10.0,10.0,10.0
AnW0728,Anglian Water,KING'S LYNN TUNNEL PS,0.39349273,52.74537,Estuarine,Anglian,"Transitional, GREAT OUSE",King's Lynn and West Norfolk,GREAT OUSE,N,N,N,N,,13.0,61.0,82.0,N,2030.0,Y,Improvements to be confirmed,10.0,13.0,,,0.0,1.0,1.0,1.0,1.0,1.0,13.0,10.0,10.0,10.0,10.0,10.0
AnW0729,Anglian Water,KING'S LYNN PURFLEET QUAY PS,0.39217418,52.753757,Estuarine,Anglian,"Transitional, GREAT OUSE",King's Lynn and West Norfolk,GREAT OUSE,N,N,Y,N,Y,32.0,24.0,18.0,N,2030.0,Y,"Storage, Spill treatment, New screen. Other improvements to be confirmed",10.0,32.0,,,0.0,1.0,1.0,1.0,1.0,1.0,32.0,10.0,10.0,10.0,10.0,10.0
AnW0730,Anglian Water,KINGS LYNN - SAMPHIRE PLACE PS,0.3874968,52.752235,Inland,Anglian,North West Norfolk,King's Lynn and West Norfolk,Not part of a river WB catchment,N,N,N,N,,5.0,1.0,4.0,Y,2023.0,,Operational (e.g. blockages). Other improvements to be confirmed,10.0,5.0,Y,Y,1.0,1.0,1.0,1.0,1.0,1.0,10.0,10.0,10.0,10.0,10.0,10.0
AnW0734,Anglian Water,KIRBY MAIN MALTINGS PUMPING STATION,1.2217507,51.8555,Inland,Anglian,Combined Essex,Tendring,Not part of a river WB catchment,N,Y,Y,N,Y,59.0,19.0,7.0,N,2030.0,Y,"Spill treatment, New screen, Operational (e.g. blockages). Other improvements to be confirmed",10.0,59.0,,,0.0,1.0,1.0,1.0,1.0,1.0,59.0,10.0,10.0,10.0,10.0,10.0
AnW0735,Anglian Water,KIRTON - DRUNKARDS LANE WRC,1.3301035,52.008625,Estuarine,Anglian,East Suffolk,East Suffolk,Not part of a river WB catchment,N,N,N,N,,2.0,34.0,1.0,N,2040.0,,Storage. Other improvements to be confirmed,10.0,2.0,Y,Y,1.0,1.0,1.0,1.0,1.0,1.0,2.0,2.0,2.0,10.0,10.0,10.0
AnW0738,Anglian Water,KNAPWELL PUMPING STATION,-0.047413003,52.243637,Inland,Anglian,Upper and Bedford Ouse,South Cambridgeshire,Fen Drayton Drain,N,N,N,N,,3.0,8.0,1.0,Y,2023.0,,Operational (e.g. blockages). Other improvements to be confirmed,10.0,3.0,Y,Y,1.0,1.0,1.0,1.0,1.0,1.0,10.0,10.0,10.0,10.0,10.0,10.0
AnW0741,Anglian Water,LACEBY WATER RECYCLING CENTRE,-0.15883173,53.546825,Inland,Humber,Louth Grimsby and Ancholme,North East Lincolnshire,Laceby Beck / River Freshney Catchment (to N Sea),N,N,Y,N,Y,45.0,115.0,60.0,N,2030.0,Y,Storage. Other improvements to be confirmed,10.0,45.0,,,0.0,1.0,1.0,1.0,1.0,1.0,45.0,10.0,10.0,10.0,10.0,10.0
AnW0742,Anglian Water,LACEBY-CAISTOR ROAD #1 CSO,-0.16467333,53.54089,Inland,Humber,Louth Grimsby and Ancholme,North East Lincolnshire,Laceby Beck / River Freshney Catchment (to N Sea),N,N,Y,N,Y,49.0,59.0,45.0,N,2030.0,Y,Storage. Other improvements to be confirmed,10.0,49.0,,,0.0,1.0,1.0,1.0,1.0,1.0,49.0,10.0,10.0,10.0,10.0,10.0
AnW0753,Anglian Water,LEASINGHAM - MOOR LA TPS,-0.41979712,53.026276,Inland,Anglian,Witham,North Kesteven,Ruskington Beck,N,N,N,N,,0.0,0.0,0.0,Y,2023.0,,Operational (e.g. blockages). Other improvements to be confirmed,10.0,0.0,Y,Y,1.0,1.0,1.0,1.0,1.0,1.0,10.0,10.0,10.0,10.0,10.0,10.0
AnW0755,Anglian Water,LEIGHTON BUZZARD - CHAINBRIDGE PS,-0.6568608,51.913803,Inland,Anglian,Upper and Bedford Ouse,Central Bedfordshire,Clipstone Brook,N,N,N,N,,6.0,3.0,0.0,Y,2023.0,,Improvements to be confirmed,10.0,6.0,Y,Y,1.0,1.0,1.0,1.0,1.0,1.0,10.0,10.0,10.0,10.0,10.0,10.0
AnW0756,Anglian Water,LEIGHTON LINSLADE WATER RECYCLING C,-0.66964155,51.929054,Inland,Anglian,Upper and Bedford Ouse,Central Bedfordshire,Ouzel US Caldecote Mill,N,N,Y,N,Y,54.0,50.0,11.0,N,2030.0,Y,"Storage, Spill treatment, New screen. Other improvements to be confirmed",10.0,54.0,,,0.0,1.0,1.0,1.0,1.0,1.0,54.0,10.0,10.0,10.0,10.0,10.0
AnW0762,Anglian Water,LEISTON - MAIN STREET #1 CSO,1.5882888,52.21317,Inland,Anglian,East Suffolk,East Suffolk,Leiston Beck,N,N,N,N,,1.0,7.0,6.0,Y,2023.0,,Operational (e.g. blockages). Other improvements to be confirmed,10.0,1.0,Y,Y,1.0,1.0,1.0,1.0,1.0,1.0,10.0,10.0,10.0,10.0,10.0,10.0
AnW0763,Anglian Water,LEISTON - MAIN STREET #2 CSO,1.5883156,52.213326,Inland,Anglian,East Suffolk,East Suffolk,Leiston Beck,N,N,N,N,,2.0,5.0,9.0,Y,2023.0,,Operational (e.g. blockages). Other improvements to be confirmed,10.0,2.0,Y,Y,1.0,1.0,1.0,1.0,1.0,1.0,10.0,10.0,10.0,10.0,10.0,10.0
AnW0764,Anglian Water,LEISTON - MAIN STREET #3 CSO,1.5883254,52.21322,Inland,Anglian,East Suffolk,East Suffolk,Leiston Beck,N,N,N,N,,6.0,11.0,12.0,Y,2023.0,,Operational (e.g. blockages). Other improvements to be confirmed,10.0,6.0,Y,Y,1.0,1.0,1.0,1.0,1.0,1.0,10.0,10.0,10.0,10.0,10.0,10.0
AnW0765,Anglian Water,LEISTON VALLEY ROAD WRC,1.5884765,52.2134,Inland,Anglian,East Suffolk,East Suffolk,Leiston Beck,N,N,N,N,,0.0,1.0,0.0,Y,2023.0,,"Increased pass forward flow/flow to treatment, Spill treatment, Operational (e.g. blockages). Other improvements to be confirmed",10.0,0.0,Y,Y,1.0,1.0,1.0,1.0,1.0,1.0,10.0,10.0,10.0,10.0,10.0,10.0
AnW0766,Anglian Water,LEISTON - VALLEY ROAD/CROWN STREET,1.5882148,52.213333,Inland,Anglian,East Suffolk,East Suffolk,Leiston Beck,N,N,N,N,,4.0,9.0,7.0,Y,2023.0,,"Operational (e.g. blockages), Nature-Based (e.g SuDS or Wetland Treatment). Other improvements to be confirmed",10.0,4.0,Y,Y,1.0,1.0,1.0,1.0,1.0,1.0,10.0,10.0,10.0,10.0,10.0,10.0
AnW0767,Anglian Water,LEISTON-VALLEY ROAD/CROWN STREET [2],1.5884849,52.21333,Inland,Anglian,East Suffolk,East Suffolk,Leiston Beck,N,N,N,N,,59.0,59.0,42.0,N,2035.0,Y,"Spill treatment, New screen, Operational (e.g. blockages), Nature-Based (e.g SuDS or Wetland Treatment). Other improvements to be confirmed",10.0,59.0,,,0.0,0.0,1.0,1.0,1.0,1.0,59.0,59.0,10.0,10.0,10.0,10.0
AnW0769,Anglian Water,LEISTON - WATERLOO AVE/PARK HILL #2,1.5882095,52.21324,Inland,Anglian,East Suffolk,East Suffolk,Leiston Beck,N,N,N,N,,9.0,12.0,10.0,Y,2023.0,,Operational (e.g. blockages). Other improvements to be confirmed,10.0,9.0,Y,Y,1.0,1.0,1.0,1.0,1.0,1.0,10.0,10.0,10.0,10.0,10.0,10.0
AnW0771,Anglian Water,LETCHWORTH WATER RECYCLING CENTRE,-0.23968828,51.99642,Inland,Anglian,Upper and Bedford Ouse,North Hertfordshire,Pix Brook,N,N,Y,N,Y,0.0,0.0,0.0,N,2023.0,Y,Storage. Other improvements to be confirmed,10.0,0.0,Y,Y,1.0,1.0,1.0,1.0,1.0,1.0,10.0,10.0,10.0,10.0,10.0,10.0
AnW0772,Anglian Water,LETCHWORTH-NORTON COMMON CSO,-0.23286535,51.98472,Inland,Anglian,Upper and Bedford Ouse,North Hertfordshire,Pix Brook,N,N,Y,N,Y,11.0,10.0,13.0,N,2040.0,Y,Improvements to be confirmed,10.0,11.0,,,0.0,0.0,0.0,1.0,1.0,1.0,11.0,11.0,11.0,10.0,10.0,10.0
AnW0773,Anglian Water,LINCOLN BRAYFORD WAY PS,-0.54775757,53.229637,Inland,Anglian,Witham,Lincoln,Skellingthorpe Main Drain,N,N,N,N,,8.0,1.0,4.0,Y,2023.0,,Improvements to be confirmed,10.0,8.0,Y,Y,1.0,1.0,1.0,1.0,1.0,1.0,10.0,10.0,10.0,10.0,10.0,10.0
AnW0774,Anglian Water,LINCOLN OUTER CIRCLE ROAD CSO,-0.50693417,53.24037,Inland,Anglian,Witham,Lincoln,Witham 1st and 3rd IDBs draining to the River Witham,N,N,N,N,,3.0,4.0,6.0,Y,2023.0,,Improvements to be confirmed,10.0,3.0,Y,Y,1.0,1.0,1.0,1.0,1.0,1.0,10.0,10.0,10.0,10.0,10.0,10.0
AnW0776,Anglian Water,LINTON WATER RECYCLING CENTRE,0.26177475,52.10737,Inland,Anglian,Cam and Ely Ouse,South Cambridgeshire,Granta,N,N,N,N,,7.0,12.0,20.0,N,2035.0,,Improvements to be confirmed,10.0,7.0,Y,Y,1.0,1.0,1.0,1.0,1.0,1.0,7.0,7.0,10.0,10.0,10.0,10.0
AnW0784,Anglian Water,LITTLE BYTHAM - STATION ROAD CSO,-0.4973812,52.749664,Inland,Anglian,Welland,South Kesteven,The Tham,N,N,N,N,,9.0,84.0,3.0,N,2040.0,,Improvements to be confirmed,10.0,9.0,Y,Y,1.0,1.0,1.0,1.0,1.0,1.0,9.0,9.0,9.0,10.0,10.0,10.0
AnW0786,Anglian Water,SSO AT WATERSIDE,0.20322904,52.397484,Inland,Anglian,Cam and Ely Ouse,East Cambridgeshire,Not part of a river WB catchment,N,N,N,N,,0.0,0.0,0.0,Y,2023.0,,Improvements to be confirmed,10.0,0.0,Y,Y,1.0,1.0,1.0,1.0,1.0,1.0,10.0,10.0,10.0,10.0,10.0,10.0
AnW0797,Anglian Water,LITTLEPORT-FRIARS WY WIS RD,0.3009086,52.461082,Inland,Anglian,Cam and Ely Ouse,East Cambridgeshire,Not part of a river WB catchment,N,N,N,N,,6.0,4.0,0.0,Y,2023.0,,Improvements to be confirmed,10.0,6.0,Y,Y,1.0,1.0,1.0,1.0,1.0,1.0,10.0,10.0,10.0,10.0,10.0,10.0
AnW0800,Anglian Water,LODDON-KNAPPS BRIDGE PS,1.4851903,52.531666,Inland,Anglian,Broadland Rivers,South Norfolk,Chet,N,N,N,N,,6.0,2.0,4.0,Y,2023.0,,Operational (e.g. blockages). Other improvements to be confirmed,10.0,6.0,Y,Y,1.0,1.0,1.0,1.0,1.0,1.0,10.0,10.0,10.0,10.0,10.0,10.0
AnW0811,Anglian Water,RAMSGATE ROAD CSO,0.005517744,53.370403,Inland,Humber,Louth Grimsby and Ancholme,East Lindsey,Louth Canal,N,N,N,N,,6.0,0.0,1.0,Y,2023.0,,Improvements to be confirmed,10.0,6.0,Y,Y,1.0,1.0,1.0,1.0,1.0,1.0,10.0,10.0,10.0,10.0,10.0,10.0
AnW0812,Anglian Water,SPAW LANE CSO,-0.006599038,53.36845,Inland,Humber,Louth Grimsby and Ancholme,East Lindsey,Louth Canal,N,N,Y,N,Y,136.0,114.0,72.0,N,2030.0,Y,"Storage, Smart sewers. Other improvements to be confirmed",10.0,136.0,,,0.0,1.0,1.0,1.0,1.0,1.0,136.0,10.0,10.0,10.0,10.0,10.0
AnW0813,Anglian Water,LOUTH STW,0.042037822,53.39226,Inland,Humber,Louth Grimsby and Ancholme,East Lindsey,Louth Canal,N,N,Y,N,Y,32.0,38.0,51.0,N,2030.0,Y,Storage. Other improvements to be confirmed,10.0,32.0,,,0.0,1.0,1.0,1.0,1.0,1.0,32.0,10.0,10.0,10.0,10.0,10.0
AnW0815,Anglian Water,LOUTH BRACKENBOROUGH ROAD CSO,0.003211309,53.37251,Inland,Humber,Louth Grimsby and Ancholme,East Lindsey,Louth Canal,N,N,N,N,,3.0,1.0,7.0,Y,2023.0,,Operational (e.g. blockages). Other improvements to be confirmed,10.0,3.0,Y,Y,1.0,1.0,1.0,1.0,1.0,1.0,10.0,10.0,10.0,10.0,10.0,10.0
AnW0816,Anglian Water,LOUTH-BRIDGE STREET CSO,-0.008726489,53.36781,Inland,Humber,Louth Grimsby and Ancholme,East Lindsey,Louth Canal,N,N,Y,N,Y,43.0,51.0,34.0,N,2030.0,Y,"Operational (e.g. blockages), Nature-Based (e.g SuDS or Wetland Treatment). Other improvements to be confirmed",10.0,43.0,,,0.0,1.0,1.0,1.0,1.0,1.0,43.0,10.0,10.0,10.0,10.0,10.0
AnW0818,Anglian Water,LOUTH-CHURCHLIGHTS CSO,-0.00874408,53.36772,Inland,Humber,Louth Grimsby and Ancholme,East Lindsey,Louth Canal,N,N,Y,N,Y,49.0,61.0,44.0,N,2030.0,Y,Nature-Based (e.g SuDS or Wetland Treatment). Other improvements to be confirmed,10.0,49.0,,,0.0,1.0,1.0,1.0,1.0,1.0,49.0,10.0,10.0,10.0,10.0,10.0
AnW0820,Anglian Water,LOUTH GRIMSBY ROAD CISTERN CSO,-0.00842652,53.36794,Inland,Humber,Louth Grimsby and Ancholme,East Lindsey,Louth Canal,N,N,N,N,,7.0,26.0,18.0,N,2035.0,,Operational (e.g. blockages). Other improvements to be confirmed,10.0,7.0,Y,Y,1.0,1.0,1.0,1.0,1.0,1.0,7.0,7.0,10.0,10.0,10.0,10.0
AnW0821,Anglian Water,LOUTH-JAMES STREET CSO,0.000506336,53.36932,Inland,Humber,Louth Grimsby and Ancholme,East Lindsey,Louth Canal,N,N,Y,N,Y,35.0,16.0,8.0,N,2030.0,Y,"Operational (e.g. blockages), Nature-Based (e.g SuDS or Wetland Treatment). Other improvements to be confirmed",10.0,35.0,,,0.0,1.0,1.0,1.0,1.0,1.0,35.0,10.0,10.0,10.0,10.0,10.0
AnW0822,Anglian Water,LOUTH-KENWICK CSO,0.009131899,53.357758,Inland,Anglian,Witham,East Lindsey,South Dike and Grayfleet Drain,N,N,N,N,,6.0,4.0,1.0,Y,2023.0,,Improvements to be confirmed,10.0,6.0,Y,Y,1.0,1.0,1.0,1.0,1.0,1.0,10.0,10.0,10.0,10.0,10.0,10.0
AnW0832,Anglian Water,YEOVIL ROAD COMBINED SEWER OVERFLOW,1.7370455,52.474277,Inland,Anglian,Broadland Rivers,East Suffolk,Waveney (Ellingham Mill - Burgh St. Peter),N,N,N,N,,2.0,1.0,4.0,N,2023.0,,Improvements to be confirmed,10.0,2.0,Y,Y,1.0,1.0,1.0,1.0,1.0,1.0,10.0,10.0,10.0,10.0,10.0,10.0
AnW0838,Anglian Water,NORWICH ROAD CSO'S (#1 & #2),1.7354965,52.474552,Inland,Anglian,Broadland Rivers,East Suffolk,Waveney (Ellingham Mill - Burgh St. Peter),N,N,N,N,,3.0,7.0,3.0,Y,2023.0,,Improvements to be confirmed,10.0,3.0,Y,Y,1.0,1.0,1.0,1.0,1.0,1.0,10.0,10.0,10.0,10.0,10.0,10.0
AnW0843,Anglian Water,LITTLE DOWNHAM CALIFORNIA HSE CSO,0.25159153,52.437935,Inland,Anglian,Cam and Ely Ouse,East Cambridgeshire,Ely Ouse (South Level),N,N,N,N,,9.0,8.0,4.0,Y,2023.0,,Improvements to be confirmed,10.0,9.0,Y,Y,1.0,1.0,1.0,1.0,1.0,1.0,10.0,10.0,10.0,10.0,10.0,10.0
AnW0847,Anglian Water,CHATHAM GREEN PUMPING STATION,0.49136332,51.813618,Inland,Anglian,Combined Essex,Chelmsford,Ter,N,N,N,N,,0.0,0.0,0.0,Y,2023.0,,Operational (e.g. blockages). Other improvements to be confirmed,10.0,0.0,Y,Y,1.0,1.0,1.0,1.0,1.0,1.0,10.0,10.0,10.0,10.0,10.0,10.0
AnW0850,Anglian Water,LUDHAM-WOMACK STAITHE (NO.1) TPS,1.5383964,52.708584,Inland,Anglian,Broadland Rivers,North Norfolk,Thurne,N,N,N,N,,0.0,0.0,0.0,Y,2023.0,,"Sealing of sewers, Spill treatment, New screen. Other improvements to be confirmed",10.0,0.0,Y,Y,1.0,1.0,1.0,1.0,1.0,1.0,10.0,10.0,10.0,10.0,10.0,10.0
AnW0852,Anglian Water,MABLETHORPE WATER RECYCLING CENTRE,0.23712072,53.317917,Inland,Anglian,Witham,East Lindsey,Woldgrift Drain,N,N,Y,N,Y,24.0,0.0,21.0,N,2030.0,,"Spill treatment, New screen. Other improvements to be confirmed",10.0,24.0,,,0.0,1.0,1.0,1.0,1.0,1.0,24.0,10.0,10.0,10.0,10.0,10.0
AnW0854,Anglian Water,MALDON WATER RECYCLING CENTRE,0.73767716,51.73367,Estuarine,Anglian,Combined Essex,Maldon,Not part of a river WB catchment,N,N,Y,Y,Y,86.0,72.0,10.0,N,2030.0,Y,Storage. Other improvements to be confirmed,10.0,86.0,,,0.0,1.0,1.0,1.0,1.0,1.0,86.0,10.0,10.0,10.0,10.0,10.0
AnW0856,Anglian Water,MALDON PARK DRIVE CSO,0.69860923,51.722164,Estuarine,Anglian,Combined Essex,Maldon,Not part of a river WB catchment,N,N,Y,Y,Y,23.0,26.0,5.0,N,2030.0,Y,Improvements to be confirmed,10.0,23.0,,,0.0,1.0,1.0,1.0,1.0,1.0,23.0,10.0,10.0,10.0,10.0,10.0
AnW0862,Anglian Water,MANTHORPE MILL PUMPING STATION,-0.62895685,52.9334,Inland,Anglian,Witham,South Kesteven,Witham - conf Cringle Bk to conf Brant,N,N,N,N,,8.0,17.0,43.0,N,2040.0,,Operational (e.g. blockages). Other improvements to be confirmed,10.0,8.0,Y,Y,1.0,1.0,1.0,1.0,1.0,1.0,8.0,8.0,8.0,10.0,10.0,10.0
AnW0866,Anglian Water,DARTFORD ROAD CSO,0.079793505,52.551407,Inland,Anglian,Old Bedford and Middle Level,Fenland,Middle Level,N,N,Y,N,Y,18.0,51.0,0.0,N,2035.0,Y,"Spill treatment, New screen, Operational (e.g. blockages), Nature-Based (e.g SuDS or Wetland Treatment). Other improvements to be confirmed",10.0,18.0,,,0.0,0.0,1.0,1.0,1.0,1.0,18.0,18.0,10.0,10.0,10.0,10.0
AnW0867,Anglian Water,MARCH-ELLIOT ROAD CSO,0.07569645,52.55211,Inland,Anglian,Old Bedford and Middle Level,Fenland,Middle Level,N,N,N,N,,6.0,4.0,0.0,Y,2023.0,,Operational (e.g. blockages). Other improvements to be confirmed,10.0,6.0,Y,Y,1.0,1.0,1.0,1.0,1.0,1.0,10.0,10.0,10.0,10.0,10.0,10.0
AnW0869,Anglian Water,WINDSOR DRIVE CSO,0.07556982,52.55215,Inland,Anglian,Old Bedford and Middle Level,Fenland,Middle Level,N,N,Y,N,Y,50.0,20.0,20.0,N,2030.0,,"Spill treatment, New screen, Operational (e.g. blockages). Other improvements to be confirmed",10.0,50.0,,,0.0,1.0,1.0,1.0,1.0,1.0,50.0,10.0,10.0,10.0,10.0,10.0
AnW0875,Anglian Water,MARKET HARBOROUGH-RIVERSIDE ROAD,-0.8838243,52.49222,Inland,Anglian,Welland,North Northamptonshire,Welland - conf Jordan to conf Langton Bk,N,N,Y,N,Y,51.0,70.0,50.0,N,2030.0,Y,"Storage, Smart sewers. Other improvements to be confirmed",10.0,51.0,,,0.0,1.0,1.0,1.0,1.0,1.0,51.0,10.0,10.0,10.0,10.0,10.0
AnW0882,Anglian Water,MARSTON STATION RD TPS,-0.5449797,52.060024,Inland,Anglian,Upper and Bedford Ouse,Central Bedfordshire,Elstow Brook (US Shortstown),N,N,N,N,,1.0,2.0,0.0,Y,2023.0,,Operational (e.g. blockages). Other improvements to be confirmed,10.0,1.0,Y,Y,1.0,1.0,1.0,1.0,1.0,1.0,10.0,10.0,10.0,10.0,10.0,10.0
AnW0884,Anglian Water,MARTLESHAM BRIDGE PUMPING STATION,1.2865283,52.078205,Inland,Anglian,East Suffolk,East Suffolk,Lark - Fynn (d/s confluence),N,N,N,N,,0.0,0.0,1.0,Y,2023.0,,Operational (e.g. blockages). Other improvements to be confirmed,10.0,0.0,Y,Y,1.0,1.0,1.0,1.0,1.0,1.0,10.0,10.0,10.0,10.0,10.0,10.0
AnW0886,Anglian Water,MAYLAND WATER RECYCLING CENTRE,0.7760912,51.6869,Estuarine,Anglian,Combined Essex,Maldon,Not part of a river WB catchment,N,N,Y,Y,Y,50.0,73.0,33.0,N,2030.0,Y,Increased pass forward flow/flow to treatment. Other improvements to be confirmed,10.0,50.0,,,0.0,1.0,1.0,1.0,1.0,1.0,50.0,10.0,10.0,10.0,10.0,10.0
AnW0888,Anglian Water,MEARS ASHBY MAIN PS,-0.7657712,52.278687,Inland,Anglian,Nene,North Northamptonshire,Swanspool Brook,N,N,N,N,,2.0,5.0,2.0,Y,2023.0,,Operational (e.g. blockages). Other improvements to be confirmed,10.0,2.0,Y,Y,1.0,1.0,1.0,1.0,1.0,1.0,10.0,10.0,10.0,10.0,10.0,10.0
AnW0891,Anglian Water,MELTON CONTABLE - BURGH BECK PS,1.0404693,52.85842,Inland,Anglian,North Norfolk Rivers,North Norfolk,Glaven,N,N,N,N,,5.0,4.0,2.0,Y,2023.0,,Operational (e.g. blockages). Other improvements to be confirmed,10.0,5.0,Y,Y,1.0,1.0,1.0,1.0,1.0,1.0,10.0,10.0,10.0,10.0,10.0,10.0
AnW0894,Anglian Water,MEPAL STW,0.11973462,52.41277,Inland,Anglian,Cam and Ely Ouse,East Cambridgeshire,Not part of a river WB catchment,N,N,Y,N,Y,18.0,21.0,30.0,N,2035.0,Y,"Storage, Spill treatment, New screen. Other improvements to be confirmed",10.0,18.0,,,0.0,0.0,1.0,1.0,1.0,1.0,18.0,18.0,10.0,10.0,10.0,10.0
AnW0897,Anglian Water,MIDDLETON(NORTHANTS) STW,-0.76677525,52.506344,Inland,Anglian,Welland,North Northamptonshire,Welland - conf Langton Bk to conf Gwash,N,N,N,N,,5.0,6.0,17.0,Y,2023.0,,Improvements to be confirmed,10.0,5.0,Y,Y,1.0,1.0,1.0,1.0,1.0,1.0,10.0,10.0,10.0,10.0,10.0,10.0
AnW0898,Anglian Water,MILDENHALL WATER RECYCLING CENTRE,0.4776824,52.3425,Inland,Anglian,Cam and Ely Ouse,West Suffolk,Lark downstream of Mill Street Bridge,N,N,N,N,,0.0,2.0,1.0,Y,2023.0,,Storage. Other improvements to be confirmed,10.0,0.0,Y,Y,1.0,1.0,1.0,1.0,1.0,1.0,10.0,10.0,10.0,10.0,10.0,10.0
AnW0906,Anglian Water,THE DELL CHALET PARK,1.4397695,52.87603,Inland,Anglian,North Norfolk Rivers,North Norfolk,Mun,Y,N,N,Y,Y,14.0,6.0,8.0,N,2035.0,Y,"Storage, Operational (e.g. blockages). Other improvements to be confirmed",10.0,14.0,,,0.0,0.0,1.0,1.0,1.0,1.0,14.0,14.0,10.0,10.0,10.0,10.0
AnW0907,Anglian Water,MUNDESLEY-KNAPTON ROAD WRC,1.4564396,52.88751,Coastal,Anglian,"Coastal, Norfolk East",North Norfolk,Norfolk East,N,N,N,Y,Y,23.0,39.0,48.0,N,2035.0,,"Increased pass forward flow/flow to treatment, Spill treatment. Other improvements to be confirmed",10.0,23.0,,,0.0,0.0,1.0,1.0,1.0,1.0,23.0,23.0,10.0,10.0,10.0,10.0
AnW0908,Anglian Water,MUNDESLEY - THE PROM PS,1.441154,52.876617,Inland,Anglian,North Norfolk Rivers,North Norfolk,Mun,Y,N,Y,Y,Y,2.0,3.0,3.0,Y,2023.0,Y,Storage. Other improvements to be confirmed,10.0,2.0,Y,Y,1.0,1.0,1.0,1.0,1.0,1.0,10.0,10.0,10.0,10.0,10.0,10.0
AnW0916,Anglian Water,NASH - REAR OF CHURCH SP,-0.8630887,51.997795,Inland,Anglian,Upper and Bedford Ouse,Buckinghamshire,Padbury Brook (The Twins),N,N,N,N,,1.0,0.0,0.0,Y,2023.0,,Improvements to be confirmed,10.0,1.0,Y,Y,1.0,1.0,1.0,1.0,1.0,1.0,10.0,10.0,10.0,10.0,10.0,10.0
AnW0918,Anglian Water,NASSINGTON WATER RECYCLING CENTRE,-0.42902488,52.557186,Inland,Anglian,Nene,North Northamptonshire,Nene - Islip to tidal,N,N,N,N,,0.0,0.0,1.0,Y,2023.0,,Storage. Other improvements to be confirmed,10.0,0.0,Y,Y,1.0,1.0,1.0,1.0,1.0,1.0,10.0,10.0,10.0,10.0,10.0,10.0
AnW0929,Anglian Water,NEWMARKET WATER RECYCLING CENTRE,0.39504507,52.276867,Inland,Anglian,Cam and Ely Ouse,West Suffolk,Soham Lode,N,N,Y,N,Y,12.0,9.0,7.0,N,2040.0,Y,Storage. Other improvements to be confirmed,10.0,12.0,,,0.0,0.0,0.0,1.0,1.0,1.0,12.0,12.0,12.0,10.0,10.0,10.0
AnW0930,Anglian Water,NEWMARKET WATER RECYCLING CENTRE,0.394958,52.27684,Inland,Anglian,Cam and Ely Ouse,West Suffolk,Soham Lode,N,N,N,N,,0.0,0.0,3.0,Y,2023.0,Y,Storage. Other improvements to be confirmed,10.0,0.0,Y,Y,1.0,1.0,1.0,1.0,1.0,1.0,10.0,10.0,10.0,10.0,10.0,10.0
AnW0932,Anglian Water,WILLEN ROAD PS,-0.71594214,52.08017,Inland,Anglian,Upper and Bedford Ouse,Milton Keynes,Ouzel DS Caldecote Mill,N,N,N,N,,1.0,0.0,0.0,Y,2023.0,,Improvements to be confirmed,10.0,1.0,Y,Y,1.0,1.0,1.0,1.0,1.0,1.0,10.0,10.0,10.0,10.0,10.0,10.0
AnW0934,Anglian Water,NEWTON LONGVILLE-WHADDON ROAD PS,-0.7742749,51.98027,Inland,Anglian,Upper and Bedford Ouse,Buckinghamshire,Newton Longville Brook,N,N,N,N,,40.0,35.0,39.0,N,2030.0,Y,"Smart sewers, Spill treatment, New screen, Operational (e.g. blockages). Other improvements to be confirmed",10.0,40.0,,,0.0,1.0,1.0,1.0,1.0,1.0,40.0,10.0,10.0,10.0,10.0,10.0
AnW0937,Anglian Water,NORMANBY PARK PUMPING STATION,-0.6635998,53.64126,Inland,Humber,Louth Grimsby and Ancholme,North Lincolnshire,Winterton Beck from Source to the Humber,N,N,N,N,,6.0,25.0,9.0,N,2040.0,,Operational (e.g. blockages). Other improvements to be confirmed,10.0,6.0,Y,Y,1.0,1.0,1.0,1.0,1.0,1.0,6.0,6.0,6.0,10.0,10.0,10.0
AnW0938,Anglian Water,NORTH COATES WATER RECYCLING CENTRE,0.038253956,53.483036,Inland,Humber,Louth Grimsby and Ancholme,East Lindsey,Not part of a river WB catchment,N,N,N,N,,7.0,22.0,10.0,N,2040.0,,Improvements to be confirmed,10.0,7.0,Y,Y,1.0,1.0,1.0,1.0,1.0,1.0,7.0,7.0,7.0,10.0,10.0,10.0
AnW0941,Anglian Water,NORTH HYKEHAM WATER RECYCLING CENTR,-0.56935525,53.183872,Inland,Anglian,Witham,North Kesteven,Witham - conf Brant to conf Catchwater Drain,N,N,N,N,,7.0,19.0,9.0,N,2040.0,,Improvements to be confirmed,10.0,7.0,Y,Y,1.0,1.0,1.0,1.0,1.0,1.0,7.0,7.0,7.0,10.0,10.0,10.0
AnW0946,Anglian Water,PETEBOROUGH NORTH MINSTER CSO,-0.23553851,52.566868,Inland,Anglian,Nene,Peterborough,Nene - Islip to tidal,N,N,N,N,,4.0,2.0,5.0,Y,2023.0,,Improvements to be confirmed,10.0,4.0,Y,Y,1.0,1.0,1.0,1.0,1.0,1.0,10.0,10.0,10.0,10.0,10.0,10.0
AnW0947,Anglian Water,NORTH THORESBY WRC,-0.056644738,53.471542,Inland,Humber,Louth Grimsby and Ancholme,East Lindsey,New Dike Catchment (trib of Louth Canal),N,N,N,N,,12.0,50.0,53.0,N,2030.0,Y,"Increased pass forward flow/flow to treatment, Spill treatment, New screen. Other improvements to be confirmed",10.0,12.0,,,0.0,1.0,1.0,1.0,1.0,1.0,12.0,10.0,10.0,10.0,10.0,10.0
AnW0953,Anglian Water,NORTH WALSHAM-BLUEBELL ROAD CSO,1.4030391,52.82659,Inland,Anglian,Broadland Rivers,North Norfolk,North Walsham and Dilham Canal (disused),N,N,N,N,,4.0,6.0,3.0,Y,2023.0,,Improvements to be confirmed,10.0,4.0,Y,Y,1.0,1.0,1.0,1.0,1.0,1.0,10.0,10.0,10.0,10.0,10.0,10.0
AnW0955,Anglian Water,ABINGTON TANK CSO,-0.84085447,52.23809,Inland,Anglian,Nene,West Northamptonshire,Nene - conf Brampton Branch to conf Ise,N,N,N,N,,5.0,6.0,7.0,Y,2023.0,,Improvements to be confirmed,10.0,5.0,Y,Y,1.0,1.0,1.0,1.0,1.0,1.0,10.0,10.0,10.0,10.0,10.0,10.0
AnW0960,Anglian Water,BEDFORD ROAD SPS,-0.8788126,52.231174,Inland,Anglian,Nene,West Northamptonshire,Nene - conf Brampton Branch to conf Ise,N,N,N,N,,0.0,0.0,0.0,Y,2023.0,,Improvements to be confirmed,10.0,0.0,Y,Y,1.0,1.0,1.0,1.0,1.0,1.0,10.0,10.0,10.0,10.0,10.0,10.0
AnW0965,Anglian Water,NORTHAMPTON DUSTON SYCAMORE CSO,-0.9047248,52.243286,Inland,Anglian,Nene,West Northamptonshire,Brampton Branch - Lower,N,N,N,N,,111.0,99.0,56.0,N,2030.0,Y,"Storage, Smart sewers, Operational (e.g. blockages), Nature-Based (e.g SuDS or Wetland Treatment). Other improvements to be confirmed",10.0,111.0,,,0.0,1.0,1.0,1.0,1.0,1.0,111.0,10.0,10.0,10.0,10.0,10.0
AnW0968,Anglian Water,NORTHAMPTON LOWER HESTER STREET CSO,-0.9047149,52.24369,Inland,Anglian,Nene,West Northamptonshire,Brampton Branch - Lower,N,N,N,N,,14.0,19.0,13.0,N,2030.0,Y,Storage. Other improvements to be confirmed,10.0,14.0,,,0.0,1.0,1.0,1.0,1.0,1.0,14.0,10.0,10.0,10.0,10.0,10.0
AnW0970,Anglian Water,NORTHAMPTON MANHOLE 15 DUSTON CSO,-0.9321167,52.23095,Inland,Anglian,Nene,West Northamptonshire,Nene - conf Whilton Branch to conf Brampton Branch,N,N,N,N,,8.0,8.0,9.0,Y,2023.0,,Improvements to be confirmed,10.0,8.0,Y,Y,1.0,1.0,1.0,1.0,1.0,1.0,10.0,10.0,10.0,10.0,10.0,10.0
AnW0971,Anglian Water,NORTHAMPTON MILL LANE CSO,-0.910123,52.256104,Inland,Anglian,Nene,West Northamptonshire,Brampton Branch - Lower,N,N,N,N,,1.0,1.0,2.0,Y,2023.0,,Improvements to be confirmed,10.0,1.0,Y,Y,1.0,1.0,1.0,1.0,1.0,1.0,10.0,10.0,10.0,10.0,10.0,10.0
AnW0974,Anglian Water,NORTHAMPTON SPENCER BRIDGE ROAD CSO,-0.9087203,52.241615,Inland,Anglian,Nene,West Northamptonshire,Brampton Branch - Lower,N,N,N,N,,46.0,30.0,12.0,N,2030.0,Y,Storage. Other improvements to be confirmed,10.0,46.0,,,0.0,1.0,1.0,1.0,1.0,1.0,46.0,10.0,10.0,10.0,10.0,10.0
AnW0975,Anglian Water,NORTHAMPTON SWAN STREET CSO,-0.891205,52.233135,Inland,Anglian,Nene,West Northamptonshire,Nene - conf Brampton Branch to conf Ise,N,N,N,N,,6.0,7.0,18.0,Y,2023.0,,Improvements to be confirmed,10.0,6.0,Y,Y,1.0,1.0,1.0,1.0,1.0,1.0,10.0,10.0,10.0,10.0,10.0,10.0
AnW0980,Anglian Water,NORWICH - CHALK HILL ROAD CSO,1.3068315,52.628975,Inland,Anglian,Broadland Rivers,Norwich,Wensum DS Norwich,N,N,Y,N,Y,44.0,0.0,1.0,N,2035.0,Y,Improvements to be confirmed,10.0,44.0,,,0.0,0.0,1.0,1.0,1.0,1.0,44.0,44.0,10.0,10.0,10.0,10.0
AnW0983,Anglian Water,NORWICH - KETTS HILL CSO,1.308565,52.634323,Inland,Anglian,Broadland Rivers,Norwich,Wensum DS Norwich,N,N,Y,N,Y,7.0,10.0,3.0,N,2023.0,Y,Operational (e.g. blockages). Other improvements to be confirmed,10.0,7.0,Y,Y,1.0,1.0,1.0,1.0,1.0,1.0,10.0,10.0,10.0,10.0,10.0,10.0
AnW0986,Anglian Water,NORWICH - RIVER LANE CSO,1.3024371,52.635395,Inland,Anglian,Broadland Rivers,Norwich,Wensum DS Norwich,N,N,Y,N,Y,2.0,4.0,2.0,N,2023.0,Y,Improvements to be confirmed,10.0,2.0,Y,Y,1.0,1.0,1.0,1.0,1.0,1.0,10.0,10.0,10.0,10.0,10.0,10.0
AnW0987,Anglian Water,NORWICH - ROSARY ROAD CSO,1.3058653,52.627922,Inland,Anglian,Broadland Rivers,Norwich,Wensum DS Norwich,N,N,Y,N,Y,0.0,1.0,0.0,N,2023.0,Y,Improvements to be confirmed,10.0,0.0,Y,Y,1.0,1.0,1.0,1.0,1.0,1.0,10.0,10.0,10.0,10.0,10.0,10.0
AnW0988,Anglian Water,KING STREET COMBINED SEWER OVERFLOW,1.3028939,52.62576,Inland,Anglian,Broadland Rivers,Norwich,Wensum DS Norwich,N,N,Y,N,Y,56.0,52.0,38.0,N,2035.0,Y,Improvements to be confirmed,10.0,56.0,,,0.0,0.0,1.0,1.0,1.0,1.0,56.0,56.0,10.0,10.0,10.0,10.0
AnW0991,Anglian Water,NORWICH CEDAR ROAD CSO,1.3088118,52.62055,Inland,Anglian,Broadland Rivers,Norwich,Wensum DS Norwich,N,N,Y,N,Y,33.0,33.0,35.0,N,2035.0,Y,Improvements to be confirmed,10.0,33.0,,,0.0,0.0,1.0,1.0,1.0,1.0,33.0,33.0,10.0,10.0,10.0,10.0
AnW0997,Anglian Water,NORWICH COW TOWER CSO,1.3087126,52.63432,Inland,Anglian,Broadland Rivers,Norwich,Wensum DS Norwich,N,N,Y,N,Y,10.0,5.0,13.0,N,2023.0,Y,Storage. Other improvements to be confirmed,10.0,10.0,Y,Y,1.0,1.0,1.0,1.0,1.0,1.0,10.0,10.0,10.0,10.0,10.0,10.0
AnW0998,Anglian Water,NORWICH - BARRACK STREET CSO,1.300284,52.634285,Inland,Anglian,Broadland Rivers,Norwich,Wensum DS Norwich,N,N,Y,N,Y,4.0,6.0,5.0,N,2023.0,Y,Operational (e.g. blockages). Other improvements to be confirmed,10.0,4.0,Y,Y,1.0,1.0,1.0,1.0,1.0,1.0,10.0,10.0,10.0,10.0,10.0,10.0
AnW1001,Anglian Water,GIBRALTAR GARDENS CSO,1.2761174,52.64125,Inland,Anglian,Broadland Rivers,Norwich,Wensum DS Norwich,N,N,Y,N,Y,34.0,64.0,17.0,N,2030.0,Y,Storage. Other improvements to be confirmed,10.0,34.0,,,0.0,1.0,1.0,1.0,1.0,1.0,34.0,10.0,10.0,10.0,10.0,10.0
AnW1002,Anglian Water,NORWICH - KING STREET #2 CSO,1.3031213,52.62485,Inland,Anglian,Broadland Rivers,Norwich,Wensum DS Norwich,N,N,Y,N,Y,15.0,10.0,17.0,N,2030.0,Y,Improvements to be confirmed,10.0,15.0,,,0.0,1.0,1.0,1.0,1.0,1.0,15.0,10.0,10.0,10.0,10.0,10.0
AnW1003,Anglian Water,NORWICH LOWER CLOSE (FERRY LN) CSO,1.3072144,52.630135,Inland,Anglian,Broadland Rivers,Norwich,Wensum DS Norwich,N,N,Y,N,Y,3.0,3.0,1.0,N,2023.0,Y,Operational (e.g. blockages). Other improvements to be confirmed,10.0,3.0,Y,Y,1.0,1.0,1.0,1.0,1.0,1.0,10.0,10.0,10.0,10.0,10.0,10.0
AnW1004,Anglian Water,NORWICH - NEW MILLS CSO,1.287939,52.633278,Inland,Anglian,Broadland Rivers,Norwich,Wensum DS Norwich,N,N,Y,N,Y,2.0,1.0,0.0,N,2023.0,Y,Improvements to be confirmed,10.0,2.0,Y,Y,1.0,1.0,1.0,1.0,1.0,1.0,10.0,10.0,10.0,10.0,10.0,10.0
AnW1006,Anglian Water,NORWICH - PRINCE OF WALES ROAD CSO,1.3055702,52.62793,Inland,Anglian,Broadland Rivers,Norwich,Wensum DS Norwich,N,N,Y,N,Y,33.0,58.0,22.0,N,2030.0,Y,"Storage, Operational (e.g. blockages). Other improvements to be confirmed",10.0,33.0,,,0.0,1.0,1.0,1.0,1.0,1.0,33.0,10.0,10.0,10.0,10.0,10.0
AnW1007,Anglian Water,NORWICH ST FAITHS LANE CSO,1.3063822,52.6289,Inland,Anglian,Broadland Rivers,Norwich,Wensum DS Norwich,N,N,Y,N,Y,31.0,45.0,43.0,N,2035.0,Y,Operational (e.g. blockages). Other improvements to be confirmed,10.0,31.0,,,0.0,0.0,1.0,1.0,1.0,1.0,31.0,31.0,10.0,10.0,10.0,10.0
AnW1008,Anglian Water,OAKHAM WRC,-0.6911744,52.664234,Inland,Anglian,Welland,Rutland,South Gwash,N,N,N,N,,0.0,54.0,53.0,N,2025.0,,"Storage, Increased pass forward flow/flow to treatment, Spill treatment, New screen, Operational (e.g. blockages). Other improvements to be confirmed",10.0,0.0,Y,Y,1.0,1.0,1.0,1.0,1.0,1.0,10.0,10.0,10.0,10.0,10.0,10.0
AnW1019,Anglian Water,PETERBOROUGH-ORTON MERE PS,-0.2819932,52.55991,Inland,Anglian,Nene,Peterborough,Nene - Islip to tidal,N,N,N,N,,3.0,4.0,2.0,Y,2023.0,,Improvements to be confirmed,10.0,3.0,Y,Y,1.0,1.0,1.0,1.0,1.0,1.0,10.0,10.0,10.0,10.0,10.0,10.0
AnW1023,Anglian Water,OUNDLE WATER RECYCLING CENTRE,-0.46849552,52.495396,Inland,Anglian,Nene,North Northamptonshire,Nene - Islip to tidal,N,N,Y,N,Y,53.0,31.0,19.0,N,2030.0,Y,Increased pass forward flow/flow to treatment. Other improvements to be confirmed,10.0,53.0,,,0.0,1.0,1.0,1.0,1.0,1.0,53.0,10.0,10.0,10.0,10.0,10.0
AnW1026,Anglian Water,OUNDLE BARNWELL ROAD TPS,-0.47496942,52.478577,Inland,Anglian,Nene,North Northamptonshire,Lyveden Brook,N,N,N,N,,7.0,9.0,2.0,Y,2023.0,,Operational (e.g. blockages). Other improvements to be confirmed,10.0,7.0,Y,Y,1.0,1.0,1.0,1.0,1.0,1.0,10.0,10.0,10.0,10.0,10.0,10.0
AnW1030,Anglian Water,OVER WATER RECYCLING CENTRE,0.03264257,52.318985,Inland,Anglian,Cam and Ely Ouse,South Cambridgeshire,Old West River,N,N,Y,N,Y,0.0,34.0,53.0,N,2035.0,Y,Storage. Other improvements to be confirmed,10.0,0.0,Y,Y,1.0,1.0,1.0,1.0,1.0,1.0,0.0,0.0,10.0,10.0,10.0,10.0
AnW1031,Anglian Water,OVER FEN ROAD,0.02396786,52.318596,Inland,Anglian,Cam and Ely Ouse,South Cambridgeshire,Old West River,N,N,Y,N,Y,0.0,2.0,4.0,N,2023.0,Y,Improvements to be confirmed,10.0,0.0,Y,Y,1.0,1.0,1.0,1.0,1.0,1.0,10.0,10.0,10.0,10.0,10.0,10.0
AnW1032,Anglian Water,PROMENADE SEWER STORAGE TANK,1.3426734,52.920086,Coastal,Anglian,North Norfolk Rivers,North Norfolk,Not part of a river WB catchment,N,N,N,Y,Y,16.0,37.0,24.0,N,2030.0,,Operational (e.g. blockages). Other improvements to be confirmed,10.0,16.0,,,0.0,1.0,1.0,1.0,1.0,1.0,16.0,10.0,10.0,10.0,10.0,10.0
AnW1036,Anglian Water,PAGLESHAM CHURCHEND SPS,0.77537304,51.606514,Inland,Anglian,Combined Essex,Rochford,Not part of a river WB catchment,N,Y,Y,Y,Y,16.0,21.0,8.0,N,2035.0,Y,"Spill treatment, New screen, Operational (e.g. blockages), Nature-Based (e.g SuDS or Wetland Treatment). Other improvements to be confirmed",10.0,16.0,,,0.0,0.0,1.0,1.0,1.0,1.0,16.0,16.0,10.0,10.0,10.0,10.0
AnW1037,Anglian Water,PAGLESHAM WEST TERMINAL PS,0.77976644,51.598045,Inland,Anglian,Combined Essex,Rochford,Not part of a river WB catchment,N,Y,Y,Y,Y,12.0,37.0,8.0,N,2040.0,,"Spill treatment, New screen, Operational (e.g. blockages). Other improvements to be confirmed",10.0,12.0,,,0.0,0.0,0.0,1.0,1.0,1.0,12.0,12.0,12.0,10.0,10.0,10.0
AnW1038,Anglian Water,PAPWORTH EVERARD STW,-0.1252877,52.25533,Inland,Anglian,Upper and Bedford Ouse,South Cambridgeshire,West Brook,N,N,N,N,,0.0,0.0,6.0,Y,2023.0,,Improvements to be confirmed,10.0,0.0,Y,Y,1.0,1.0,1.0,1.0,1.0,1.0,10.0,10.0,10.0,10.0,10.0,10.0
AnW1040,Anglian Water,PAULERSPURY - CUTTLE MILL PS,-0.95218897,52.112,Inland,Anglian,Upper and Bedford Ouse,West Northamptonshire,Tove (DS Greens Norton),N,N,N,N,,5.0,31.0,8.0,N,2040.0,,Operational (e.g. blockages). Other improvements to be confirmed,10.0,5.0,Y,Y,1.0,1.0,1.0,1.0,1.0,1.0,5.0,5.0,5.0,10.0,10.0,10.0
AnW1050,Anglian Water,PETERBOROUGH WERRTON FENBRIDGE TPS,-0.2652277,52.62215,Inland,Anglian,Welland,Peterborough,Folly River (including Werrington and Marholm Brooks),N,N,N,N,,2.0,0.0,0.0,N,2023.0,Y,Improvements to be confirmed,10.0,2.0,Y,Y,1.0,1.0,1.0,1.0,1.0,1.0,10.0,10.0,10.0,10.0,10.0,10.0
AnW1051,Anglian Water,PETERBOROUGH - FLAG FEN WRC,-0.19940756,52.567287,Inland,Anglian,Nene,Peterborough,North Level Pumped Areas 2 and 3,N,N,Y,N,Y,127.0,127.0,30.0,N,2035.0,Y,"Storage, Spill treatment, New screen. Other improvements to be confirmed",10.0,127.0,,,0.0,0.0,1.0,1.0,1.0,1.0,127.0,127.0,10.0,10.0,10.0,10.0
AnW1052,Anglian Water,PETERBOROUGH - FLAG FEN WRC,-0.19933182,52.567337,Inland,Anglian,Nene,Peterborough,North Level Pumped Areas 2 and 3,N,N,Y,N,Y,87.0,87.0,36.0,N,2030.0,Y,"Storage, Spill treatment, New screen. Other improvements to be confirmed",10.0,87.0,,,0.0,1.0,1.0,1.0,1.0,1.0,87.0,10.0,10.0,10.0,10.0,10.0
AnW1054,Anglian Water,PETERBOROUGH-WERRTON LINCOLN ROAD,-0.27516082,52.609978,Inland,Anglian,Welland,Peterborough,Folly River (including Werrington and Marholm Brooks),N,N,N,N,,4.0,2.0,0.0,N,2023.0,Y,Improvements to be confirmed,10.0,4.0,Y,Y,1.0,1.0,1.0,1.0,1.0,1.0,10.0,10.0,10.0,10.0,10.0,10.0
AnW1058,Anglian Water,PETERBOROUGH - ULLSWATER AVE CSO,-0.26166803,52.61131,Inland,Anglian,Welland,Peterborough,Folly River (including Werrington and Marholm Brooks),N,N,N,N,,1.0,2.0,1.0,N,2023.0,Y,Operational (e.g. blockages). Other improvements to be confirmed,10.0,1.0,Y,Y,1.0,1.0,1.0,1.0,1.0,1.0,10.0,10.0,10.0,10.0,10.0,10.0
AnW1062,Anglian Water,PITSFORD SPS,-0.8938721,52.308636,Inland,Anglian,Nene,West Northamptonshire,Pitsford Arm of the Brampton Branch,N,N,N,N,,8.0,11.0,6.0,Y,2023.0,,Improvements to be confirmed,10.0,8.0,Y,Y,1.0,1.0,1.0,1.0,1.0,1.0,10.0,10.0,10.0,10.0,10.0,10.0
AnW1063,Anglian Water,PLESHEY - FORD END PUMPING STATION,0.42842135,51.827614,Inland,Anglian,Combined Essex,Chelmsford,Chelmer (Gt. Easton - R. Can),N,N,N,N,,0.0,11.0,4.0,Y,2023.0,,Operational (e.g. blockages). Other improvements to be confirmed,10.0,0.0,Y,Y,1.0,1.0,1.0,1.0,1.0,1.0,10.0,10.0,10.0,10.0,10.0,10.0
AnW1069,Anglian Water,POTTERSPURY - CHURCH END CSO,-0.8899753,52.08275,Inland,Anglian,Upper and Bedford Ouse,West Northamptonshire,Potterspury Brook,N,N,N,N,,5.0,13.0,3.0,Y,2023.0,,Operational (e.g. blockages). Other improvements to be confirmed,10.0,5.0,Y,Y,1.0,1.0,1.0,1.0,1.0,1.0,10.0,10.0,10.0,10.0,10.0,10.0
AnW1070,Anglian Water,POTTON - ROYSTON STREET CSO,-0.21198063,52.125126,Inland,Anglian,Upper and Bedford Ouse,Central Bedfordshire,Millbridge and Potton Brooks,N,N,N,N,,0.0,6.0,4.0,Y,2023.0,,Improvements to be confirmed,10.0,0.0,Y,Y,1.0,1.0,1.0,1.0,1.0,1.0,10.0,10.0,10.0,10.0,10.0,10.0
AnW1082,Anglian Water,RAMSEY - BODSEY TPS,-0.094974644,52.4701,Inland,Anglian,Old Bedford and Middle Level,Huntingdonshire,Middle Level,N,N,N,N,,3.0,2.0,1.0,Y,2023.0,,Improvements to be confirmed,10.0,3.0,Y,Y,1.0,1.0,1.0,1.0,1.0,1.0,10.0,10.0,10.0,10.0,10.0,10.0
AnW1088,Anglian Water,RAUNDS - ROTTEN ROW/HIGH STREET CSO,-0.53548324,52.34556,Inland,Anglian,Nene,North Northamptonshire,Hog Dyke,N,N,N,N,,0.0,2.0,3.0,Y,2023.0,,Improvements to be confirmed,10.0,0.0,Y,Y,1.0,1.0,1.0,1.0,1.0,1.0,10.0,10.0,10.0,10.0,10.0,10.0
AnW1093,Anglian Water,RAYLEIGH EAST STW,0.6429788,51.58259,Inland,Anglian,Combined Essex,Rochford,Noblesgreen Ditch,N,N,N,N,,4.0,25.0,5.0,N,2040.0,,Improvements to be confirmed,10.0,4.0,Y,Y,1.0,1.0,1.0,1.0,1.0,1.0,4.0,4.0,4.0,10.0,10.0,10.0
AnW1096,Anglian Water,RAYNE TERMINAL PUMPING STATION,0.5173325,51.88123,Inland,Anglian,Combined Essex,Braintree,Brain,N,N,N,N,,7.0,18.0,6.0,Y,2023.0,,Improvements to be confirmed,10.0,7.0,Y,Y,1.0,1.0,1.0,1.0,1.0,1.0,10.0,10.0,10.0,10.0,10.0,10.0
AnW1101,Anglian Water,REEPHAM KENNEL LANE/CLOUGH HILL CSO,-0.4499199,53.25061,Inland,Anglian,Witham,West Lindsey,Barlings Eau,N,N,N,N,,0.0,1.0,1.0,Y,2023.0,,Operational (e.g. blockages). Other improvements to be confirmed,10.0,0.0,Y,Y,1.0,1.0,1.0,1.0,1.0,1.0,10.0,10.0,10.0,10.0,10.0,10.0
AnW1106,Anglian Water,SOUTHEND - ROCHFORD ROAD CSO,0.70395654,51.56654,Inland,Anglian,Combined Essex,Southend-on-Sea,Prittle Brook,N,N,N,N,,6.0,5.0,3.0,Y,2023.0,,Improvements to be confirmed,10.0,6.0,Y,Y,1.0,1.0,1.0,1.0,1.0,1.0,10.0,10.0,10.0,10.0,10.0,10.0
AnW1107,Anglian Water,ROCHFORD - DORIC AV & ASHINGT R CSO,0.6921413,51.591274,Inland,Anglian,Combined Essex,Rochford,Roach,N,N,N,N,,0.0,0.0,0.0,Y,2023.0,,Improvements to be confirmed,10.0,0.0,Y,Y,1.0,1.0,1.0,1.0,1.0,1.0,10.0,10.0,10.0,10.0,10.0,10.0
AnW1108,Anglian Water,ROCHFORD DEPOT PUMPING STATION,0.70805573,51.579666,Inland,Anglian,Combined Essex,Rochford,Noblesgreen Ditch,N,Y,Y,Y,Y,9.0,17.0,6.0,N,2035.0,,Improvements to be confirmed,10.0,9.0,Y,Y,1.0,1.0,1.0,1.0,1.0,1.0,9.0,9.0,10.0,10.0,10.0,10.0
AnW1110,Anglian Water,ROTHERSTHORPE PS,-0.9517735,52.204514,Inland,Anglian,Nene,West Northamptonshire,Wootton Brook,N,N,N,N,,0.0,13.0,28.0,N,2040.0,,Smart sewers. Other improvements to be confirmed,10.0,0.0,Y,Y,1.0,1.0,1.0,1.0,1.0,1.0,0.0,0.0,0.0,10.0,10.0,10.0
AnW1114,Anglian Water,ROTTERDAM ROAD #1 CSO,1.7369803,52.47413,Inland,Anglian,Broadland Rivers,East Suffolk,Waveney (Ellingham Mill - Burgh St. Peter),N,N,N,N,,1.0,1.0,0.0,Y,2023.0,,Improvements to be confirmed,10.0,1.0,Y,Y,1.0,1.0,1.0,1.0,1.0,1.0,10.0,10.0,10.0,10.0,10.0,10.0
AnW1116,Anglian Water,KINGSHALL GREEN PUMPING STATION,0.8051052,52.210262,Inland,Anglian,Cam and Ely Ouse,West Suffolk,Pakenham Stream,N,N,N,N,,2.0,4.0,1.0,Y,2023.0,,Operational (e.g. blockages). Other improvements to be confirmed,10.0,2.0,Y,Y,1.0,1.0,1.0,1.0,1.0,1.0,10.0,10.0,10.0,10.0,10.0,10.0
AnW1117,Anglian Water,COLCHESTER-ROWHEDGE ALBION ST. CSO,0.9492932,51.855812,Estuarine,Anglian,Combined Essex,Colchester,Not part of a river WB catchment,N,N,N,Y,Y,4.0,7.0,3.0,Y,2023.0,,Improvements to be confirmed,10.0,4.0,Y,Y,1.0,1.0,1.0,1.0,1.0,1.0,10.0,10.0,10.0,10.0,10.0,10.0
AnW1118,Anglian Water,COLCHESTER - REGENT COURT CSO,0.9487896,51.856995,Estuarine,Anglian,Combined Essex,Colchester,Not part of a river WB catchment,N,N,N,Y,Y,22.0,23.0,13.0,N,2035.0,,Improvements to be confirmed,10.0,22.0,,,0.0,0.0,1.0,1.0,1.0,1.0,22.0,22.0,10.0,10.0,10.0,10.0
AnW1119,Anglian Water,ROWHEDGE - HIGH STREET PUMPING ST.,0.9460067,51.858864,Inland,Anglian,Combined Essex,Colchester,Not part of a river WB catchment,N,N,N,Y,Y,1.0,1.0,0.0,Y,2023.0,,Improvements to be confirmed,10.0,1.0,Y,Y,1.0,1.0,1.0,1.0,1.0,1.0,10.0,10.0,10.0,10.0,10.0,10.0
AnW1122,Anglian Water,ROYSTON WATER RECYCLING CENTRE,-0.018778196,52.08715,Inland,Anglian,Cam and Ely Ouse,South Cambridgeshire,Whaddon Brook,N,N,N,N,,3.0,1.0,1.0,Y,2023.0,,Improvements to be confirmed,10.0,3.0,Y,Y,1.0,1.0,1.0,1.0,1.0,1.0,10.0,10.0,10.0,10.0,10.0,10.0
AnW1124,Anglian Water,WEST RUNTON WATER LANE PUMPING ST.,1.2517332,52.941586,Coastal,Anglian,North Norfolk Rivers,North Norfolk,Not part of a river WB catchment,Y,N,Y,Y,Y,30.0,33.0,17.0,N,2025.0,,"Spill treatment, New screen, Operational (e.g. blockages). Other improvements to be confirmed",10.0,30.0,,,1.0,1.0,1.0,1.0,1.0,1.0,10.0,10.0,10.0,10.0,10.0,10.0
AnW1125,Anglian Water,EAST RUNTON BEACH ROAD TERMINAL PS,1.2737532,52.937473,Coastal,Anglian,North Norfolk Rivers,North Norfolk,Not part of a river WB catchment,Y,N,N,Y,Y,5.0,4.0,2.0,N,2023.0,,"Storage, Operational (e.g. blockages). Other improvements to be confirmed",10.0,5.0,Y,Y,1.0,1.0,1.0,1.0,1.0,1.0,10.0,10.0,10.0,10.0,10.0,10.0
AnW1127,Anglian Water,RUNWELL-DOWNHAM ROAD CSO,0.5208781,51.624756,Inland,Anglian,Combined Essex,Chelmsford,Crouch (d/s Wickford),N,N,N,N,,0.0,1.0,4.0,Y,2023.0,,Improvements to be confirmed,10.0,0.0,Y,Y,1.0,1.0,1.0,1.0,1.0,1.0,10.0,10.0,10.0,10.0,10.0,10.0
AnW1128,Anglian Water,RUNWELL - BROCK HILL CSO,0.5208733,51.62467,Inland,Anglian,Combined Essex,Chelmsford,Crouch (d/s Wickford),N,N,N,N,,0.0,0.0,35.0,N,2040.0,,Improvements to be confirmed,10.0,0.0,Y,Y,1.0,1.0,1.0,1.0,1.0,1.0,0.0,0.0,0.0,10.0,10.0,10.0
AnW1129,Anglian Water,RUNWELL TPS,0.54429454,51.619755,Inland,Anglian,Combined Essex,Basildon,Crouch (d/s Wickford),N,Y,Y,Y,Y,0.0,0.0,0.0,Y,2023.0,,Operational (e.g. blockages). Other improvements to be confirmed,10.0,0.0,Y,Y,1.0,1.0,1.0,1.0,1.0,1.0,10.0,10.0,10.0,10.0,10.0,10.0
AnW1132,Anglian Water,RUSHDEN - DUCK STREET CSO,-0.60067385,52.29411,Inland,Anglian,Nene,North Northamptonshire,Nene - conf Ise to Islip,N,N,N,N,,32.0,71.0,80.0,N,2030.0,Y,"Spill treatment, New screen. Other improvements to be confirmed",10.0,32.0,,,0.0,1.0,1.0,1.0,1.0,1.0,32.0,10.0,10.0,10.0,10.0,10.0
AnW1134,Anglian Water,RUSKINGTON MH0102 MANOR STREET CSO,-0.38906425,53.046722,Inland,Anglian,Witham,North Kesteven,Ruskington Beck,N,N,N,N,,2.0,1.0,1.0,Y,2023.0,,Operational (e.g. blockages). Other improvements to be confirmed,10.0,2.0,Y,Y,1.0,1.0,1.0,1.0,1.0,1.0,10.0,10.0,10.0,10.0,10.0,10.0
AnW1138,Anglian Water,CASTLE PT HI ROAD/SOUTHVIEW RD CSO,0.5545203,51.55487,Inland,Anglian,Combined Essex,Castle Point,Not part of a river WB catchment,N,N,N,N,,1.0,3.0,0.0,Y,2023.0,,Improvements to be confirmed,10.0,1.0,Y,Y,1.0,1.0,1.0,1.0,1.0,1.0,10.0,10.0,10.0,10.0,10.0,10.0
AnW1144,Anglian Water,SOUTH KILLINGHOLME TOWN STREET CSO,-0.25822598,53.629486,Inland,Humber,Louth Grimsby and Ancholme,North Lincolnshire,North Beck Drain,N,N,N,N,,6.0,11.0,10.0,Y,2023.0,,Improvements to be confirmed,10.0,6.0,Y,Y,1.0,1.0,1.0,1.0,1.0,1.0,10.0,10.0,10.0,10.0,10.0,10.0
AnW1145,Anglian Water,CASTLE STREET/HIGH STREET,0.23620614,52.025394,Inland,Anglian,Cam and Ely Ouse,Uttlesford,Slade,N,N,N,N,,0.0,46.0,28.0,N,2035.0,,Operational (e.g. blockages). Other improvements to be confirmed,10.0,0.0,Y,Y,1.0,1.0,1.0,1.0,1.0,1.0,0.0,0.0,10.0,10.0,10.0,10.0
AnW1146,Anglian Water,SAFFRON WALDEN WRC,0.22454406,52.024773,Inland,Anglian,Cam and Ely Ouse,Uttlesford,Slade,N,N,N,N,,5.0,7.0,8.0,Y,2023.0,,"Increased pass forward flow/flow to treatment, Spill treatment. Other improvements to be confirmed",10.0,5.0,Y,Y,1.0,1.0,1.0,1.0,1.0,1.0,10.0,10.0,10.0,10.0,10.0,10.0
AnW1150,Anglian Water,THAXTED ROAD/VICTORIA AVE CSO,0.25008893,52.020275,Inland,Anglian,Cam and Ely Ouse,Uttlesford,Slade,N,N,N,N,,3.0,1.0,0.0,Y,2023.0,,Improvements to be confirmed,10.0,3.0,Y,Y,1.0,1.0,1.0,1.0,1.0,1.0,10.0,10.0,10.0,10.0,10.0,10.0
AnW1152,Anglian Water,SANDY SEWAGE TREATMENT WORKS,-0.30638716,52.13578,Inland,Anglian,Upper and Bedford Ouse,Central Bedfordshire,Ivel (DS Langford to Roxton),N,N,Y,N,Y,1.0,2.0,0.0,Y,2023.0,,Improvements to be confirmed,10.0,1.0,Y,Y,1.0,1.0,1.0,1.0,1.0,1.0,10.0,10.0,10.0,10.0,10.0,10.0
AnW1162,Anglian Water,SAXILBY - HIGH STREET/WEST BANK CSO,-0.66105485,53.26607,Inland,Anglian,Witham,West Lindsey,Skellingthorpe Main Drain,N,N,N,N,,1.0,9.0,5.0,Y,2023.0,,Improvements to be confirmed,10.0,1.0,Y,Y,1.0,1.0,1.0,1.0,1.0,1.0,10.0,10.0,10.0,10.0,10.0,10.0
AnW1165,Anglian Water,SCAWBY SEWER CSO,-0.5363198,53.538105,Inland,Humber,Louth Grimsby and Ancholme,North Lincolnshire,Ancholme from Bishopbridge to the Humber,N,N,N,N,,3.0,4.0,1.0,Y,2023.0,,Improvements to be confirmed,10.0,3.0,Y,Y,1.0,1.0,1.0,1.0,1.0,1.0,10.0,10.0,10.0,10.0,10.0,10.0
AnW1166,Anglian Water,SCOTHERN TPS,-0.44208446,53.28476,Inland,Anglian,Witham,West Lindsey,Scothern Beck,N,N,N,N,,6.0,38.0,53.0,N,2040.0,,Operational (e.g. blockages). Other improvements to be confirmed,10.0,6.0,Y,Y,1.0,1.0,1.0,1.0,1.0,1.0,6.0,6.0,6.0,10.0,10.0,10.0
AnW1170,Anglian Water,SHERINGHM EBEACH SEW TK,1.2135887,52.945145,Coastal,Anglian,North Norfolk Rivers,North Norfolk,Not part of a river WB catchment,Y,N,Y,Y,Y,4.0,2.0,1.0,N,2023.0,,Improvements to be confirmed,10.0,4.0,Y,Y,1.0,1.0,1.0,1.0,1.0,1.0,10.0,10.0,10.0,10.0,10.0,10.0
AnW1175,Anglian Water,SHOTLEY STW,1.2738811,51.969185,Estuarine,Anglian,"Transitional, ORWELL",Babergh,ORWELL,N,N,N,N,,1.0,8.0,7.0,Y,2023.0,,Improvements to be confirmed,10.0,1.0,Y,Y,1.0,1.0,1.0,1.0,1.0,1.0,10.0,10.0,10.0,10.0,10.0,10.0
AnW1184,Anglian Water,RICHMOND DRIVE TPS,0.32109576,53.130383,Inland,Anglian,Witham,East Lindsey,Cow Bank Drain,N,N,N,N,,7.0,6.0,6.0,Y,2023.0,,Operational (e.g. blockages). Other improvements to be confirmed,10.0,7.0,Y,Y,1.0,1.0,1.0,1.0,1.0,1.0,10.0,10.0,10.0,10.0,10.0,10.0
AnW1185,Anglian Water,SKELLINGTHORPE STW,-0.5975192,53.242638,Inland,Anglian,Witham,North Kesteven,Skellingthorpe Main Drain,N,N,N,N,,4.0,31.0,21.0,N,2040.0,,Improvements to be confirmed,10.0,4.0,Y,Y,1.0,1.0,1.0,1.0,1.0,1.0,4.0,4.0,4.0,10.0,10.0,10.0
AnW1186,Anglian Water,SKELLINGTHORPE  LINCOLN ROAD CSO,-0.6121526,53.23499,Inland,Anglian,Witham,North Kesteven,Boultham Catchwater Drain,N,N,N,N,,2.0,2.0,2.0,N,2023.0,Y,Improvements to be confirmed,10.0,2.0,Y,Y,1.0,1.0,1.0,1.0,1.0,1.0,10.0,10.0,10.0,10.0,10.0,10.0
AnW1196,Anglian Water,SNITTERBY PUMPING STATION,-0.5182525,53.441788,Inland,Humber,Louth Grimsby and Ancholme,West Lindsey,Black Dyke (trib of Ancholme),N,N,N,N,,0.0,1.0,0.0,Y,2023.0,,Improvements to be confirmed,10.0,0.0,Y,Y,1.0,1.0,1.0,1.0,1.0,1.0,10.0,10.0,10.0,10.0,10.0,10.0
AnW1197,Anglian Water,SOHAM WATER RECYCLING CENTRE,0.31500044,52.34517,Inland,Anglian,Cam and Ely Ouse,East Cambridgeshire,Ely Ouse (South Level),N,N,Y,N,Y,34.0,39.0,8.0,N,2030.0,Y,"Storage, Increased pass forward flow/flow to treatment, Spill treatment, Nature-Based (e.g SuDS or Wetland Treatment). Other improvements to be confirmed",10.0,34.0,,,0.0,1.0,1.0,1.0,1.0,1.0,34.0,10.0,10.0,10.0,10.0,10.0
AnW1198,Anglian Water,SOHAM CHERRY TREE PUMPING STATION,0.3490927,52.323547,Inland,Anglian,Cam and Ely Ouse,East Cambridgeshire,Ely Ouse (South Level),N,N,N,N,,2.0,4.0,3.0,Y,2023.0,,"Spill treatment, New screen, Operational (e.g. blockages). Other improvements to be confirmed",10.0,2.0,Y,Y,1.0,1.0,1.0,1.0,1.0,1.0,10.0,10.0,10.0,10.0,10.0,10.0
AnW1206,Anglian Water,SOUTHEND - BELTON GARDENS PS,0.64413583,51.537865,Estuarine,Thames,South Essex,Southend-on-Sea,Not part of a river WB catchment,Y,Y,Y,N,Y,6.0,5.0,3.0,N,2023.0,Y,Improvements to be confirmed,10.0,6.0,Y,Y,1.0,1.0,1.0,1.0,1.0,1.0,10.0,10.0,10.0,10.0,10.0,10.0
AnW1213,Anglian Water,SOUTHEND PRITTLE BROOK STORAGE TANK,0.671378,51.537605,Estuarine,Thames,"Transitional, THAMES LOWER",Southend-on-Sea,THAMES LOWER,N,Y,Y,N,Y,4.0,10.0,7.0,N,2023.0,Y,Storage. Other improvements to be confirmed,10.0,4.0,Y,Y,1.0,1.0,1.0,1.0,1.0,1.0,10.0,10.0,10.0,10.0,10.0,10.0
AnW1214,Anglian Water,SOUTHEND SEWAGE WORKS,0.7463695,51.504036,Estuarine,Thames,"Transitional, THAMES LOWER",Southend-on-Sea,THAMES LOWER,N,Y,Y,N,Y,23.0,77.0,64.0,N,2030.0,Y,Storage. Other improvements to be confirmed,10.0,23.0,,,0.0,1.0,1.0,1.0,1.0,1.0,23.0,10.0,10.0,10.0,10.0,10.0
AnW1218,Anglian Water,SOUTHEND - BELTON GARDENS PS,0.72622633,51.531128,Estuarine,Thames,"Transitional, THAMES LOWER",Southend-on-Sea,THAMES LOWER,Y,Y,Y,N,Y,6.0,13.0,5.0,N,2023.0,Y,Operational (e.g. blockages). Other improvements to be confirmed,10.0,6.0,Y,Y,1.0,1.0,1.0,1.0,1.0,1.0,10.0,10.0,10.0,10.0,10.0,10.0
AnW1221,Anglian Water,EASTWOOD PARK,0.66094166,51.566353,Inland,Anglian,Combined Essex,Southend-on-Sea,Eastwood Brook,N,N,N,N,,2.0,3.0,9.0,Y,2023.0,,Improvements to be confirmed,10.0,2.0,Y,Y,1.0,1.0,1.0,1.0,1.0,1.0,10.0,10.0,10.0,10.0,10.0,10.0
AnW1227,Anglian Water,SOUTHEND - BELTON GARDENS PS,0.733495,51.5297,Estuarine,Anglian,Combined Essex,Southend-on-Sea,Not part of a river WB catchment,Y,Y,Y,N,Y,11.0,28.0,15.0,N,2035.0,Y,"Spill treatment, New screen, Nature-Based (e.g SuDS or Wetland Treatment). Other improvements to be confirmed",10.0,11.0,,,0.0,0.0,1.0,1.0,1.0,1.0,11.0,11.0,10.0,10.0,10.0,10.0
AnW1230,Anglian Water,SOUTHEND- RIORY CRESCENT CSO,0.7084239,51.556725,Inland,Anglian,Combined Essex,Southend-on-Sea,Prittle Brook,N,N,N,N,,1.0,2.0,2.0,Y,2023.0,,Improvements to be confirmed,10.0,1.0,Y,Y,1.0,1.0,1.0,1.0,1.0,1.0,10.0,10.0,10.0,10.0,10.0,10.0
